name,location,id,longitude,latitude
会展城地铁站A口,"113.768906,22.711854",BX10034188,113.768906,22.711854
会展城(地铁站),"113.769777,22.712135",BV10861136,113.769777,22.712135
会展城地铁站D口,"113.768853,22.712220",BX10034189,113.768853,22.71222
会展城地铁站B口,"113.770647,22.712056",BX10034191,113.770647,22.712056
会展城地铁站C口,"113.770584,22.712436",BX10034190,113.770584,22.712436
国展北地铁站C2口,"113.776388,22.703588",BX10034193,113.776388,22.703588
国展北(地铁站),"113.776899,22.703129",BV10996657,113.776899,22.703129
国展北地铁站C1口,"113.776468,22.703110",BX10034192,113.776468,22.70311
国展北地铁站D口,"113.776832,22.701646",BX10034596,113.776832,22.701646
国展北地铁站B口,"113.777268,22.703512",BX09901190,113.777268,22.703512
国展北地铁站A口,"113.777327,22.701776",BX10034595,113.777327,22.701776
国展地铁站出入口,"113.777847,22.698227",BX09901223,113.777847,22.698227
国展地铁站C2口,"113.777453,22.696680",BX10034590,113.777453,22.69668
国展地铁站C1口,"113.777512,22.696251",BX10034591,113.777512,22.696251
国展(地铁站),"113.777985,22.695767",BV10996669,113.777985,22.695767
国展地铁站B口,"113.778653,22.696890",BX09901224,113.778653,22.69689
国展地铁站D口,"113.777902,22.694655",BX10035695,113.777902,22.694655
海上田园南地铁站A口,"113.775087,22.716925",BX09901245,113.775087,22.716925
国展地铁站A口,"113.778449,22.694936",BX10035694,113.778449,22.694936
海上田园南(地铁站),"113.774574,22.718084",BV10996663,113.774574,22.718084
海上田园南地铁站C口,"113.773909,22.718071",BX09901246,113.773909,22.718071
机场东地铁站D口,"113.821636,22.648595",BX09901504,113.821636,22.648595
机场东(地铁站),"113.822634,22.647001",BV10249071,113.822634,22.647001
机场东地铁站B口,"113.822704,22.647182",BX10018512,113.822704,22.647182
机场东地铁站A出口,"113.822754,22.646513",BX10021936,113.822754,22.646513
机场东地铁站E口,"113.823051,22.645673",BX09901503,113.823051,22.645673
福围(地铁站),"113.821180,22.656840",BV10996649,113.82118,22.65684
福围地铁站A口,"113.820244,22.656099",BX09906596,113.820244,22.656099
福围地铁站B1口,"113.822274,22.657266",BX09906597,113.822274,22.657266
福围地铁站B2口,"113.821997,22.657121",BX09906598,113.821997,22.657121
福围地铁站C口,"113.820937,22.657529",BX09906595,113.820937,22.657529
兴围地铁站C口,"113.833837,22.643172",BX09906138,113.833837,22.643172
兴围(地铁站),"113.834486,22.642865",BV10996662,113.834486,22.642865
兴围地铁站B口,"113.834568,22.643545",BX09906139,113.834568,22.643545
兴围地铁站D口,"113.834619,22.641924",BX09906140,113.834619,22.641924
兴围地铁站A口,"113.835281,22.642391",BX09906137,113.835281,22.642391
华为地铁站D口,"114.066444,22.650707",BX09906367,114.066444,22.650707
华为地铁站E口,"114.066383,22.650359",BX09906365,114.066383,22.650359
华为(地铁站),"114.067171,22.650445",BV10672431,114.067171,22.650445
华为地铁站F口,"114.066688,22.649721",BX09906368,114.066688,22.649721
华为地铁站A口,"114.066985,22.649454",BX09906364,114.066985,22.649454
黄君山(地铁站),"114.059469,22.641837",BV09259573,114.059469,22.641837
岗头西(地铁站),"114.060890,22.658405",BV09298381,114.06089,22.658405
华为地铁站C口,"114.067339,22.651409",BX09906363,114.067339,22.651409
华为地铁站B口,"114.067753,22.651412",BX09906366,114.067753,22.651412
贝尔路地铁站C口,"114.066121,22.642960",BX09906169,114.066121,22.64296
贝尔路(地铁站),"114.066366,22.641719",BV10672439,114.066366,22.641719
贝尔路地铁站B口,"114.066564,22.642641",BX09906170,114.066564,22.642641
松和(地铁站),"114.045686,22.653398",BV09117286,114.045686,22.653398
贝尔路地铁站D口,"114.066188,22.640814",BX09906171,114.066188,22.640814
贝尔路地铁站A口,"114.066560,22.640819",BX09906172,114.06656,22.640819
岗头地铁站E口,"114.070270,22.655681",BX09906668,114.07027,22.655681
岗头地铁站A口,"114.071179,22.655982",BX09906669,114.071179,22.655982
岗头(地铁站),"114.071895,22.657067",BV10672435,114.071895,22.657067
岗头地铁站D口,"114.071453,22.656846",BX09906665,114.071453,22.656846
岗头地铁站C2口,"114.071736,22.657810",BX09906666,114.071736,22.65781
上油松(地铁站),"114.047430,22.636769",BV09259576,114.04743,22.636769
风门坳(地铁站),"114.066558,22.671523",BV09117278,114.066558,22.671523
岗头北(地铁站),"114.060400,22.665234",BV09117291,114.0604,22.665234
观湖(地铁站),"114.070953,22.689538",BV09117287,114.070953,22.689538
观澜(地铁站),"114.054771,22.715172",BV10877297,114.054771,22.715172
观澜地铁站D口,"114.054147,22.714536",BX10030086,114.054147,22.714536
鹭湖北(地铁站),"114.068375,22.708744",BV09117290,114.068375,22.708744
观澜地铁站E口,"114.055163,22.714972",BX10030085,114.055163,22.714972
观澜地铁站A口,"114.055693,22.715535",BX10030089,114.055693,22.715535
观澜地铁站C口,"114.053828,22.714996",BX10030087,114.053828,22.714996
观澜地铁站A2口,"114.055576,22.715311",BX09904168,114.055576,22.715311
观澜地铁站B口,"114.055362,22.715820",BX10030088,114.055362,22.71582
长湖(地铁站),"114.044796,22.710764",BV10877296,114.044796,22.710764
长湖地铁站A口,"114.045920,22.711801",BX10030080,114.04592,22.711801
长湖地铁站E1口,"114.044379,22.709209",BX10030079,114.044379,22.709209
长湖地铁站B口,"114.046091,22.712690",BX10030082,114.046091,22.71269
长湖地铁站E2口,"114.044559,22.709845",BX10030081,114.044559,22.709845
长湖地铁站C口,"114.045220,22.711757",BX10030083,114.04522,22.711757
长湖地铁站D口,"114.044315,22.710564",BX10030084,114.044315,22.710564
鹭湖(地铁站),"114.072142,22.699307",BV09117280,114.072142,22.699307
桂花(地铁站),"114.050137,22.731223",BV09117281,114.050137,22.731223
松元厦(地铁站),"114.064767,22.721153",BV10877295,114.064767,22.721153
松元厦地铁站D1口,"114.064180,22.720944",BX10030105,114.06418,22.720944
松元厦地铁站C口,"114.064548,22.721298",BX10030106,114.064548,22.721298
松元厦地铁站E1口,"114.064090,22.720657",BX10030102,114.06409,22.720657
松元厦地铁站B口,"114.065164,22.721380",BX10030160,114.065164,22.72138
松元厦地铁站D2口,"114.064546,22.720825",BX10030103,114.064546,22.720825
松元厦地铁站E2口,"114.064672,22.720463",BX10030099,114.064672,22.720463
松元厦地铁站A1口,"114.064998,22.720808",BX10030104,114.064998,22.720808
松元厦地铁站A2口,"114.065581,22.720541",BX10030100,114.065581,22.720541
鹿丹村(地铁站),"114.108625,22.535708",BV10243878,114.108625,22.535708
鹿丹村地铁站A2口,"114.108326,22.535151",BX09906369,114.108326,22.535151
鹿丹村地铁站C口,"114.109509,22.535905",BX09906370,114.109509,22.535905
鹿丹村地铁站A1口,"114.107391,22.535133",BX09906372,114.107391,22.535133
鹿丹村地铁站D口,"114.107339,22.535817",BX09906371,114.107339,22.535817
红岭南地铁站G口,"114.107130,22.538805",BX09913898,114.10713,22.538805
红岭南地铁站E口,"114.105292,22.538292",BX09913897,114.105292,22.538292
红岭南地铁站C口,"114.105033,22.539050",BX10021877,114.105033,22.53905
大剧院地铁站E口,"114.107398,22.540929",BX09906542,114.107398,22.540929
红岭南(地铁站),"114.104749,22.539943",BV10738554,114.104749,22.539943
大剧院地铁站F口,"114.108868,22.541290",BX09906546,114.108868,22.54129
大剧院(地铁站),"114.107811,22.541800",BV10246013,114.107811,22.5418
大剧院地铁站B口,"114.106717,22.541406",BX09906544,114.106717,22.541406
红岭南地铁站D口,"114.105352,22.540533",BX10021876,114.105352,22.540533
红岭南地铁站A口,"114.104457,22.540595",BX10021929,114.104457,22.540595
嘉宾(地铁站),"114.115426,22.539105",BV09202515,114.115426,22.539105
向西村地铁站D2口,"114.124946,22.538661",BX10021850,114.124946,22.538661
向西村地铁站A2口,"114.125307,22.538625",BX10021854,114.125307,22.538625
人民南地铁站B口,"114.118803,22.534644",BX10021841,114.118803,22.534644
罗湖地铁站出入口,"114.119613,22.532984",BX10021977,114.119613,22.532984
人民南地铁站C口,"114.118690,22.535952",BX10021842,114.11869,22.535952
人民南(地铁站),"114.118154,22.535514",BV10447615,114.118154,22.535514
向西村地铁站A1口,"114.125916,22.538970",BX10021853,114.125916,22.53897
向西村地铁站D1口,"114.124863,22.539503",BX10021852,114.124863,22.539503
罗湖地铁站出入口,"114.118921,22.533409",BX10021978,114.118921,22.533409
罗湖地铁站E2口,"114.118803,22.532990",BX10018479,114.118803,22.53299
向西村(地铁站),"114.125767,22.539792",BV10447618,114.125767,22.539792
罗湖(地铁站),"114.118623,22.531861",BV10249978,114.118623,22.531861
国贸地铁站A口,"114.119107,22.538960",BX09906830,114.119107,22.53896
人民南地铁站A1口,"114.117422,22.534529",BX10021931,114.117422,22.534529
向西村地铁站C口,"114.125898,22.540319",BX10021855,114.125898,22.540319
罗湖地铁站E1口,"114.118262,22.532231",BX10018472,114.118262,22.532231
罗湖地铁站出入口,"114.117757,22.533286",BX10021979,114.117757,22.533286
人民南地铁站D口,"114.117315,22.535521",BX10021932,114.117315,22.535521
国贸(地铁站),"114.118826,22.539671",BV10243546,114.118826,22.539671
人民南地铁站A2口,"114.117317,22.534894",BX10021933,114.117317,22.534894
向西村地铁站B口,"114.126281,22.540283",BX10021851,114.126281,22.540283
罗湖地铁站C口,"114.117717,22.532031",BX10018476,114.117717,22.532031
罗湖地铁站B口,"114.118534,22.531242",BX10018473,114.118534,22.531242
国贸地铁站B口,"114.119573,22.540084",BX09906826,114.119573,22.540084
国贸地铁站E口,"114.118113,22.539459",BX09906828,114.118113,22.539459
国贸地铁站C口,"114.119505,22.540761",BX09906827,114.119505,22.540761
罗湖地铁站D口,"114.118114,22.530242",BX10018478,114.118114,22.530242
国贸地铁站D口,"114.118433,22.540316",BX09906829,114.118433,22.540316
罗湖地铁站A1出口,"114.118759,22.529282",BX10018477,114.118759,22.529282
罗湖地铁站A2口,"114.118481,22.529465",BX10018475,114.118481,22.529465
罗湖地铁站A3出口,"114.118321,22.529225",BX10018474,114.118321,22.529225
红岭地铁站C2口,"114.105276,22.549521",BX10021930,114.105276,22.549521
红岭(地铁站),"114.104584,22.548380",BV10249921,114.104584,22.54838
红岭地铁站H口,"114.104778,22.549071",BX10021896,114.104778,22.549071
红岭地铁站G口,"114.104773,22.547722",BX10021895,114.104773,22.547722
红岭地铁站B口,"114.104362,22.548602",BX10021897,114.104362,22.548602
红岭地铁站F口,"114.104356,22.547231",BX10021894,114.104356,22.547231
红岭地铁站C1口,"114.103791,22.549335",BX10018306,114.103791,22.549335
红岭地铁站A口,"114.103047,22.548896",BX10018304,114.103047,22.548896
红岭地铁站D口,"114.102734,22.549311",BX10018307,114.102734,22.549311
大剧院地铁站D口,"114.109490,22.542622",BX09906545,114.10949,22.542622
红岭地铁站E口,"114.102094,22.549415",BX10018305,114.102094,22.549415
大剧院地铁站出入口,"114.106977,22.542618",BX09906548,114.106977,22.542618
大剧院地铁站C口,"114.108944,22.541866",BX09906547,114.108944,22.541866
大剧院地铁站出入口,"114.109124,22.542176",BX09906543,114.109124,22.542176
老街地铁站G口,"114.115550,22.545273",BX10018269,114.11555,22.545273
老街地铁站H口,"114.115817,22.544829",BX10018265,114.115817,22.544829
老街地铁站D口,"114.115886,22.544210",BX10018270,114.115886,22.54421
老街地铁站B口,"114.115761,22.543830",BX10018263,114.115761,22.54383
晒布(地铁站),"114.122664,22.549238",BV10249963,114.122664,22.549238
晒布地铁站A2口,"114.123245,22.549196",BX10018247,114.123245,22.549196
晒布地铁站A3口,"114.122883,22.549286",BX10018252,114.122883,22.549286
晒布地铁站A1口,"114.122313,22.548130",BX10018251,114.122313,22.54813
晒布地铁站D3口,"114.122019,22.548501",BX10018246,114.122019,22.548501
晒布地铁站D1口,"114.122047,22.549011",BX10018248,114.122047,22.549011
晒布地铁站B口,"114.123442,22.550083",BX10018249,114.123442,22.550083
晒布地铁站C口,"114.123006,22.550331",BX10018250,114.123006,22.550331
湖贝(地铁站),"114.125437,22.544287",BV10250000,114.125437,22.544287
湖贝地铁站B口,"114.125347,22.544651",BX09906702,114.125347,22.544651
湖贝地铁站C口,"114.124257,22.544312",BX09906700,114.124257,22.544312
湖贝地铁站D口,"114.125206,22.544094",BX09906703,114.125206,22.544094
湖贝地铁站A口,"114.126596,22.544205",BX09906701,114.126596,22.544205
老街地铁站出入口,"114.117298,22.545529",BX09916204,114.117298,22.545529
老街地铁站A口,"114.117468,22.544483",BX10018264,114.117468,22.544483
老街地铁站出入口,"114.117096,22.545357",BX10020844,114.117096,22.545357
老街地铁站F口,"114.116747,22.545455",BX10018268,114.116747,22.545455
老街地铁站C口,"114.117812,22.543535",BX10018267,114.117812,22.543535
老街地铁站出入口,"114.116938,22.545069",BX10020843,114.116938,22.545069
老街地铁站出入口,"114.116849,22.545234",BX10021982,114.116849,22.545234
老街(地铁站),"114.116241,22.544301",BV10249964,114.116241,22.544301
老街地铁站E口,"114.116392,22.544775",BX10018266,114.116392,22.544775
东门(地铁站),"114.117397,22.542994",BV09154680,114.117397,22.542994
银湖地铁站D口,"114.089170,22.568964",BX10021859,114.08917,22.568964
银湖(地铁站),"114.089851,22.568308",BV10249923,114.089851,22.568308
银湖地铁站B口,"114.090523,22.567676",BX10021860,114.090523,22.567676
泥岗地铁站A口,"114.096931,22.567340",BX10021849,114.096931,22.56734
泥岗(地铁站),"114.097634,22.567804",BV10447617,114.097634,22.567804
八卦岭(地铁站),"114.094649,22.561941",BV10245836,114.094649,22.561941
八卦岭地铁站D口,"114.094110,22.562055",BX10021779,114.09411,22.562055
八卦岭地铁站G1口,"114.092927,22.560951",BX09905178,114.092927,22.560951
八卦岭地铁站F口,"114.093545,22.561172",BX10029381,114.093545,22.561172
八卦岭地铁站A口,"114.094706,22.561365",BX10021780,114.094706,22.561365
泥岗地铁站C口,"114.098374,22.568337",BX10021848,114.098374,22.568337
八卦岭地铁站G2口,"114.093305,22.560275",BX09905177,114.093305,22.560275
八卦岭地铁站B口,"114.096098,22.561784",BX10021778,114.096098,22.561784
八卦岭地铁站E口,"114.094329,22.559932",BX10029380,114.094329,22.559932
黄木岗地铁站12A口,"114.087148,22.557450",BX09906215,114.087148,22.55745
黄木岗地铁站11号口,"114.087821,22.557013",BX09906212,114.087821,22.557013
黄木岗地铁站12B口,"114.086548,22.556659",BX09906200,114.086548,22.556659
黄木岗(地铁站),"114.086581,22.555791",BV10602475,114.086581,22.555791
黄木岗地铁站13号口,"114.085416,22.555903",BX09906204,114.085416,22.555903
黄木岗地铁站10号口,"114.088196,22.555980",BX09906220,114.088196,22.55598
黄木岗地铁站9B口,"114.088890,22.555990",BX09906203,114.08889,22.55599
黄木岗地铁站9A口,"114.089772,22.555993",BX09906218,114.089772,22.555993
黄木岗地铁站8A口,"114.091055,22.556032",BX09906216,114.091055,22.556032
黄木岗地铁站14号口,"114.083300,22.555809",BX09906213,114.0833,22.555809
黄木岗地铁站8B口,"114.090229,22.556022",BX09906211,114.090229,22.556022
黄木岗地铁站7号口,"114.092020,22.556116",BX09906208,114.09202,22.556116
黄木岗地铁站15号口,"114.082315,22.555800",BX09906205,114.082315,22.5558
体育中心地铁站B口,"114.095295,22.555475",BX10029419,114.095295,22.555475
杨美地铁站B口,"114.080565,22.626325",BX10018617,114.080565,22.626325
杨美地铁站C口,"114.080575,22.626979",BX10018618,114.080575,22.626979
杨美(地铁站),"114.079975,22.626777",BV10249937,114.079975,22.626777
杨美地铁站A口,"114.079108,22.626573",BX10018620,114.079108,22.626573
杨美地铁站D口,"114.079403,22.627160",BX10018619,114.079403,22.62716
雪象地铁站C口,"114.079647,22.656006",BX09906358,114.079647,22.656006
吉华医院(地铁站),"114.083327,22.641323",BV09259580,114.083327,22.641323
雪象地铁站D口,"114.079461,22.656814",BX09906360,114.079461,22.656814
雪象(地铁站),"114.078808,22.657116",BV10672442,114.078808,22.657116
雪象地铁站B口,"114.078671,22.656953",BX09906362,114.078671,22.656953
雪象地铁站A口,"114.077737,22.657501",BX09906361,114.077737,22.657501
雪象地铁站E口,"114.077482,22.658137",BX09906359,114.077482,22.658137
岗头地铁站B口,"114.072637,22.657019",BX09906664,114.072637,22.657019
岗头地铁站C1口,"114.072566,22.658144",BX09906667,114.072566,22.658144
怀德地铁站B2口,"113.818697,22.667997",BX09901499,113.818697,22.667997
怀德地铁站B1口,"113.818974,22.667671",BX09901231,113.818974,22.667671
怀德(地铁站),"113.818894,22.666657",BV10996648,113.818894,22.666657
怀德地铁站C口,"113.817999,22.666991",BX09901232,113.817999,22.666991
怀德地铁站A口,"113.819571,22.666054",BX09901230,113.819571,22.666054
怀德地铁站D口,"113.819227,22.665798",BX09901233,113.819227,22.665798
桥头(地铁站),"113.811001,22.688133",BV10527858,113.811001,22.688133
桥头地铁站C口,"113.810985,22.687381",BX09906629,113.810985,22.687381
桥头地铁站D1口,"113.811452,22.688093",BX09906630,113.811452,22.688093
桥头地铁站D2口,"113.811720,22.688499",BX09906628,113.81172,22.688499
桥头地铁站B口,"113.810193,22.687536",BX09906631,113.810193,22.687536
桥头地铁站A口,"113.811033,22.688883",BX09906632,113.811033,22.688883
牛湖地铁站B口,"114.089934,22.725121",BX10030107,114.089934,22.725121
牛湖(地铁站),"114.089254,22.724608",BV10877298,114.089254,22.724608
牛湖地铁站A口,"114.090089,22.724748",BX10030108,114.090089,22.724748
牛湖地铁站C口,"114.088335,22.724464",BX10030109,114.088335,22.724464
牛湖地铁站D口,"114.088542,22.724047",BX10030110,114.088542,22.724047
观澜湖地铁站B口,"114.077303,22.722154",BX10030098,114.077303,22.722154
观澜湖地铁站A口,"114.077458,22.721752",BX10030097,114.077458,22.721752
观澜湖(地铁站),"114.076271,22.721616",BV10877300,114.076271,22.721616
观澜湖地铁站E口,"114.075893,22.721282",BX10030096,114.075893,22.721282
观澜湖地铁站C口,"114.075344,22.721549",BX10030094,114.075344,22.721549
观澜湖地铁站C2口,"114.075406,22.721716",BX09904169,114.075406,22.721716
观澜湖地铁站D口,"114.075413,22.721194",BX10030095,114.075413,22.721194
笋岗地铁站E口,"114.110175,22.562982",BX10021776,114.110175,22.562982
笋岗地铁站A口,"114.110543,22.562881",BX10021908,114.110543,22.562881
笋岗(地铁站),"114.111095,22.563350",BV10602482,114.111095,22.56335
笋岗地铁站出入口,"114.110777,22.562793",BX09900954,114.110777,22.562793
笋岗地铁站D口,"114.111354,22.563650",BX10021775,114.111354,22.56365
笋岗地铁站C1口,"114.112152,22.563487",BX10021777,114.112152,22.563487
红岭北地铁站G口,"114.105065,22.562192",BX10021800,114.105065,22.562192
红岭北(地铁站),"114.104586,22.562055",BV10447622,114.104586,22.562055
笋岗地铁站C2口,"114.112219,22.564090",BX10021774,114.112219,22.56409
红岭北地铁站J口,"114.104624,22.562930",BX10021802,114.104624,22.56293
红岭北地铁站D口,"114.104630,22.561215",BX10021803,114.10463,22.561215
红岭北地铁站A口,"114.104112,22.562792",BX10021801,114.104112,22.562792
红岭北地铁站B口,"114.104107,22.561238",BX10021799,114.104107,22.561238
红岭北地铁站B口,"114.104116,22.561120",BX09916539,114.104116,22.56112
园岭(地铁站),"114.104494,22.556122",BV10249922,114.104494,22.556122
园岭地铁站A口,"114.104180,22.556799",BX10021880,114.10418,22.556799
园岭地铁站D口,"114.105266,22.556120",BX10021879,114.105266,22.55612
大塘龙(地铁站),"114.112877,22.556277",BV09202517,114.112877,22.556277
园岭地铁站C口,"114.105360,22.555668",BX10021878,114.10536,22.555668
园岭地铁站B口,"114.103820,22.555663",BX09916541,114.10382,22.555663
洪湖地铁站C2口,"114.123148,22.565253",BX10021735,114.123148,22.565253
洪湖地铁站C1口,"114.122690,22.565236",BX10021734,114.12269,22.565236
洪湖地铁站A口,"114.121862,22.565314",BX10021736,114.121862,22.565314
洪湖(地铁站),"114.122465,22.566056",BV10602477,114.122465,22.566056
洪湖地铁站B口,"114.122490,22.565870",BX10021733,114.12249,22.56587
洪湖地铁站D口,"114.123072,22.566411",BX10021737,114.123072,22.566411
田贝地铁站E口,"114.128168,22.566704",BX10021762,114.128168,22.566704
田贝地铁站F口,"114.128812,22.567153",BX10021761,114.128812,22.567153
田贝地铁站D口,"114.129994,22.566236",BX10018242,114.129994,22.566236
田贝(地铁站),"114.130052,22.567280",BV10246144,114.130052,22.56728
田贝地铁站C口,"114.129532,22.567378",BX10018243,114.129532,22.567378
翠竹地铁站D口,"114.129130,22.556089",BX10018288,114.12913,22.556089
田贝地铁站G口,"114.129547,22.567319",BX10021760,114.129547,22.567319
翠竹地铁站C口,"114.129955,22.556706",BX10018286,114.129955,22.556706
翠竹(地铁站),"114.129883,22.556188",BV10249962,114.129883,22.556188
田贝地铁站A口,"114.130294,22.567117",BX10018244,114.130294,22.567117
田贝地铁站B口,"114.130199,22.567704",BX10018245,114.130199,22.567704
翠竹地铁站B1口,"114.130040,22.556007",BX10018289,114.13004,22.556007
罗湖北地铁站H口,"114.112685,22.579878",BX09906503,114.112685,22.579878
罗湖北地铁站A口,"114.113100,22.579999",BX09906500,114.1131,22.579999
罗湖北(地铁站),"114.113022,22.580873",BV10997903,114.113022,22.580873
罗湖北地铁站J口,"114.112943,22.580000",BX09906501,114.112943,22.58
罗湖北地铁站G口,"114.112687,22.580815",BX09906497,114.112687,22.580815
罗湖北地铁站B口,"114.113101,22.580538",BX09906505,114.113101,22.580538
罗湖北地铁站F口,"114.112685,22.581207",BX09906502,114.112685,22.581207
罗湖北地铁站C口,"114.113100,22.581112",BX09906498,114.1131,22.581112
罗湖北地铁站D口,"114.112941,22.581842",BX09906504,114.112941,22.581842
红岗(地铁站),"114.112973,22.569372",BV09426934,114.112973,22.569372
罗湖北地铁站E口,"114.112978,22.582271",BX09906499,114.112978,22.582271
水贝地铁站B口,"114.124442,22.574273",BX10018181,114.124442,22.574273
水贝(地铁站),"114.124974,22.573988",BV10246345,114.124974,22.573988
水贝地铁站A口,"114.125175,22.574336",BX10018180,114.125175,22.574336
水贝地铁站D1口,"114.124490,22.573536",BX09915001,114.12449,22.573536
水贝地铁站D2口,"114.125556,22.573551",BX09912109,114.125556,22.573551
水贝地铁站出入口,"114.125323,22.573381",BX09916195,114.125323,22.573381
布吉地铁站D1口,"114.121069,22.599921",BX09906285,114.121069,22.599921
罗岗(地铁站),"114.121984,22.593808",BV09202507,114.121984,22.593808
布吉地铁站D2口,"114.121204,22.600082",BX09906287,114.121204,22.600082
布吉地铁站C口,"114.120697,22.601058",BX09906286,114.120697,22.601058
布吉(地铁站),"114.121159,22.602330",BV10249935,114.121159,22.60233
布吉地铁站B出口,"114.121467,22.601445",BX09906281,114.121467,22.601445
布吉地铁站E1口,"114.122118,22.601132",BX09906284,114.122118,22.601132
布吉地铁站东3口,"114.120754,22.602495",BX09906279,114.120754,22.602495
布吉地铁站A口,"114.122009,22.602055",BX09906282,114.122009,22.602055
布吉地铁站E2口,"114.122362,22.601429",BX09906289,114.122362,22.601429
德兴(地铁站),"114.112868,22.588756",BV09202512,114.112868,22.588756
布吉地铁站A1口,"114.121748,22.602020",BX09906280,114.121748,22.60202
布吉地铁站东1口,"114.122102,22.602237",BX09906288,114.122102,22.602237
布吉地铁站东2口,"114.122074,22.602451",BX09906283,114.122074,22.602451
草埔地铁站B口,"114.117022,22.584933",BX10018213,114.117022,22.584933
草埔(地铁站),"114.116500,22.584447",BV10243477,114.1165,22.584447
长龙地铁站B口,"114.113992,22.607619",BX10018634,114.113992,22.607619
长龙(地铁站),"114.113825,22.608053",BV10249936,114.113825,22.608053
长龙地铁站C2出口,"114.114373,22.607896",BX10019577,114.114373,22.607896
草埔地铁站A口,"114.117217,22.583931",BX10024875,114.117217,22.583931
草埔地铁站D2口,"114.115642,22.583799",BX10018215,114.115642,22.583799
长龙地铁站A口,"114.113165,22.608209",BX10018635,114.113165,22.608209
长龙地铁站C1口,"114.114050,22.608129",BX10018636,114.11405,22.608129
百鸽笼(地铁站),"114.130380,22.595442",BV10247063,114.13038,22.595442
百鸽笼地铁站B口,"114.129785,22.594731",BX10018650,114.129785,22.594731
百鸽笼地铁站A口,"114.130174,22.595978",BX10018649,114.130174,22.595978
草埔地铁站D3口,"114.115460,22.582930",BX10020640,114.11546,22.58293
百鸽笼地铁站D口,"114.130591,22.596054",BX10018648,114.130591,22.596054
草埔地铁站D1口,"114.116988,22.582822",BX10018214,114.116988,22.582822
木棉湾地铁站D口,"114.129620,22.606943",BX10018186,114.12962,22.606943
木棉湾(地铁站),"114.130293,22.606997",BV10249961,114.130293,22.606997
木棉湾地铁站B1口,"114.130513,22.606723",BX10018188,114.130513,22.606723
木棉湾地铁站C口,"114.130457,22.607602",BX10018187,114.130457,22.607602
上水径地铁站C口,"114.106186,22.621634",BX09906258,114.106186,22.621634
下水径地铁站A口,"114.110339,22.615387",BX09906179,114.110339,22.615387
下水径(地铁站),"114.110662,22.614833",BV10244199,114.110662,22.614833
上水径(地铁站),"114.105337,22.622046",BV10244202,114.105337,22.622046
下水径地铁站C口,"114.111010,22.614150",BX09906178,114.11101,22.61415
上水径地铁站E口,"114.105244,22.622134",BX09906259,114.105244,22.622134
下李朗(地铁站),"114.130454,22.635546",BV09202516,114.130454,22.635546
凉帽山地铁站D2口,"114.117989,22.647562",BX09906244,114.117989,22.647562
凉帽山地铁站D1口,"114.117927,22.647209",BX09906247,114.117927,22.647209
凉帽山(地铁站),"114.118572,22.646254",BV10672446,114.118572,22.646254
凉帽山地铁站A口,"114.117623,22.646007",BX09906248,114.117623,22.646007
凉帽山地铁站E口,"114.119374,22.646467",BX09906249,114.119374,22.646467
凉帽山地铁站B口,"114.119352,22.645807",BX09906246,114.119352,22.645807
凉帽山地铁站C口,"114.119828,22.645763",BX09906245,114.119828,22.645763
甘坑地铁站B口,"114.106617,22.648107",BX09906583,114.106617,22.648107
甘坑(地铁站),"114.105826,22.647828",BV10672437,114.105826,22.647828
甘坑地铁站A口,"114.105500,22.647324",BX09906582,114.1055,22.647324
甘坑地铁站C口,"114.105214,22.648472",BX09906581,114.105214,22.648472
上李朗地铁站C口,"114.126685,22.653273",BX09906167,114.126685,22.653273
上李朗(地铁站),"114.127071,22.654048",BV10895880,114.127071,22.654048
上李朗地铁站B口,"114.126855,22.654822",BX09906168,114.126855,22.654822
上李朗地铁站A口,"114.127368,22.654779",BX09906166,114.127368,22.654779
深朗(地铁站),"114.128990,22.641781",BV09202510,114.12899,22.641781
华南城(地铁站),"114.122250,22.675974",BV10672443,114.12225,22.675974
华南城地铁站D口,"114.121993,22.676777",BX09906256,114.121993,22.676777
华南城地铁站C口,"114.122545,22.676544",BX09906255,114.122545,22.676544
华南城地铁站出入口,"114.122940,22.676385",BX09906254,114.12294,22.676385
华南城地铁站A口,"114.122716,22.674852",BX09906257,114.122716,22.674852
木古地铁站C口,"114.122175,22.671177",BX09906793,114.122175,22.671177
木古地铁站B口,"114.122658,22.671188",BX09906794,114.122658,22.671188
木古(地铁站),"114.122472,22.670179",BV10672432,114.122472,22.670179
禾花地铁站C口,"114.120942,22.685023",BX09906394,114.120942,22.685023
禾花地铁站A口,"114.121467,22.684789",BX09906396,114.121467,22.684789
禾花(地铁站),"114.121064,22.686028",BV10672440,114.121064,22.686028
木古地铁站D口,"114.122165,22.669432",BX09906795,114.122165,22.669432
木古地铁站A口,"114.123236,22.669958",BX09906796,114.123236,22.669958
禾花地铁站B口,"114.121670,22.686977",BX09906395,114.12167,22.686977
平湖地铁站C口,"114.125935,22.694573",BX09906196,114.125935,22.694573
平湖(地铁站),"114.125805,22.693670",BV10672444,114.125805,22.69367
平湖地铁站D口,"114.124965,22.693198",BX09906198,114.124965,22.693198
平湖地铁站A口,"114.125322,22.692988",BX09906197,114.125322,22.692988
平湖地铁站B口,"114.126790,22.694169",BX09906199,114.12679,22.694169
新秀地铁站A口,"114.147696,22.547656",BX09906150,114.147696,22.547656
新秀(地铁站),"114.149149,22.547730",BV10249914,114.149149,22.54773
新秀地铁站B口,"114.150020,22.547674",BX09906149,114.15002,22.547674
黄贝岭地铁站D口,"114.137760,22.545998",BX09906340,114.13776,22.545998
黄贝岭地铁站C口,"114.136843,22.545842",BX09906341,114.136843,22.545842
黄贝岭地铁站A口,"114.136989,22.546489",BX09906343,114.136989,22.546489
黄贝岭(地铁站),"114.136332,22.546095",BV10243876,114.136332,22.546095
黄贝岭地铁站出入口,"114.137177,22.546691",BX09912111,114.137177,22.546691
黄贝岭地铁站B口,"114.136156,22.546389",BX09906337,114.136156,22.546389
黄贝岭地铁站H口,"114.135602,22.545603",BX09906344,114.135602,22.545603
黄贝岭地铁站G2口,"114.135044,22.545535",BX09906342,114.135044,22.545535
黄贝岭地铁站E口,"114.135164,22.546177",BX09906335,114.135164,22.546177
黄贝岭地铁站F2口,"114.134910,22.546161",BX09906339,114.13491,22.546161
黄贝岭地铁站F1口,"114.134314,22.546007",BX09906338,114.134314,22.546007
黄贝岭地铁站G1口,"114.134211,22.545400",BX09906336,114.134211,22.5454
文锦(地铁站),"114.131123,22.542455",BV10447626,114.131123,22.542455
文锦地铁站B口,"114.131307,22.541952",BX10021893,114.131307,22.541952
文锦地铁站C口,"114.131318,22.543012",BX10021890,114.131318,22.543012
文锦地铁站A口,"114.130775,22.541937",BX10021891,114.130775,22.541937
文锦地铁站D口,"114.130746,22.542942",BX10021892,114.130746,22.542942
怡景地铁站B口,"114.140320,22.555294",BX10018611,114.14032,22.555294
莲塘口岸地铁站D口,"114.154909,22.553062",BX09906762,114.154909,22.553062
莲塘口岸(地铁站),"114.155341,22.553346",BV10677095,114.155341,22.553346
莲塘口岸地铁站A1口,"114.155515,22.553060",BX09906761,114.155515,22.55306
莲塘口岸地铁站C口,"114.155099,22.553821",BX09906765,114.155099,22.553821
莲塘口岸地铁站A3口,"114.156720,22.553606",BX09906763,114.15672,22.553606
莲塘口岸地铁站A2口,"114.156268,22.553307",BX09906764,114.156268,22.553307
莲塘口岸地铁站B口,"114.156370,22.553960",BX09906760,114.15637,22.55396
塘尾地铁站D口,"113.818288,22.702791",BX09906495,113.818288,22.702791
塘尾(地铁站),"113.817878,22.702075",BV10527860,113.817878,22.702075
塘尾地铁站C口,"113.818293,22.701303",BX09906493,113.818293,22.701303
塘尾地铁站A口,"113.817427,22.702701",BX09906496,113.817427,22.702701
塘尾地铁站B口,"113.817484,22.701363",BX09906494,113.817484,22.701363
马安山地铁站C口,"113.817111,22.716130",BX09906585,113.817111,22.71613
马安山(地铁站),"113.817005,22.716998",BV10729454,113.817005,22.716998
马安山地铁站B口,"113.816317,22.716425",BX09906586,113.816317,22.716425
马安山地铁站D口,"113.817700,22.717396",BX09906587,113.8177,22.717396
马安山地铁站A口,"113.816919,22.717705",BX09906584,113.816919,22.717705
太安地铁站C口,"114.136977,22.572540",BX10018607,114.136977,22.57254
太安(地铁站),"114.137119,22.573466",BV10249913,114.137119,22.573466
太安地铁站D口,"114.137930,22.574028",BX10018608,114.13793,22.574028
太安地铁站E口,"114.138056,22.574702",BX10018606,114.138056,22.574702
太安地铁站B口,"114.136108,22.572083",BX10018605,114.136108,22.572083
太安地铁站A口,"114.137164,22.574158",BX10018604,114.137164,22.574158
布心地铁站B口,"114.137928,22.580075",BX10018641,114.137928,22.580075
布心(地铁站),"114.138045,22.580986",BV10249934,114.138045,22.580986
怡景(地铁站),"114.140115,22.555856",BV10249933,114.140115,22.555856
怡景地铁站D口,"114.139820,22.556495",BX10018609,114.13982,22.556495
怡景地铁站C口,"114.140636,22.555667",BX10018612,114.140636,22.555667
布心地铁站D口,"114.138614,22.581617",BX10018642,114.138614,22.581617
布心地铁站C口,"114.137931,22.580831",BX09900098,114.137931,22.580831
怡景地铁站A口,"114.139708,22.555661",BX10018610,114.139708,22.555661
布心地铁站A口,"114.137475,22.581784",BX10018643,114.137475,22.581784
翠竹地铁站B2口,"114.130817,22.556199",BX10018287,114.130817,22.556199
求水山(地铁站),"114.142411,22.598931",BV09202514,114.142411,22.598931
南岭(地铁站),"114.150406,22.607438",BV09202508,114.150406,22.607438
百鸽笼地铁站C口,"114.131048,22.594953",BX10018651,114.131048,22.594953
百鸽笼地铁站出入口,"114.130951,22.594785",BX09900768,114.130951,22.594785
木棉湾地铁站出入口,"114.131023,22.606569",BX10018185,114.131023,22.606569
木棉湾地铁站B2口,"114.130829,22.606943",BX10018189,114.130829,22.606943
丹竹头地铁站D口,"114.147563,22.620148",BX10018191,114.147563,22.620148
丹竹头(地铁站),"114.148054,22.619752",BV10249959,114.148054,22.619752
丹竹头地铁站A口,"114.147504,22.619386",BX10018192,114.147504,22.619386
丹竹头地铁站C口,"114.148647,22.620113",BX10018190,114.148647,22.620113
丹竹头地铁站B口,"114.148302,22.619508",BX10026535,114.148302,22.619508
石芽岭地铁站E2口,"114.139453,22.627768",BX09906531,114.139453,22.627768
石芽岭地铁站E1口,"114.139151,22.628049",BX09906529,114.139151,22.628049
石芽岭(地铁站),"114.137989,22.628479",BV10997912,114.137989,22.628479
石芽岭地铁站F口,"114.139079,22.628523",BX09906534,114.139079,22.628523
石芽岭地铁站B口,"114.137615,22.627134",BX09906525,114.137615,22.627134
石芽岭地铁站A2口,"114.137033,22.626802",BX09906536,114.137033,22.626802
石芽岭地铁站D口,"114.138305,22.628098",BX09906533,114.138305,22.628098
石芽岭地铁站G口,"114.139806,22.629574",BX09906526,114.139806,22.629574
石芽岭地铁站H口,"114.138765,22.629505",BX09906535,114.138765,22.629505
石芽岭地铁站C口,"114.137469,22.627900",BX09906530,114.137469,22.6279
石芽岭地铁站A1口,"114.136387,22.626750",BX09906527,114.136387,22.62675
石芽岭地铁站J口,"114.136681,22.628008",BX09906528,114.136681,22.628008
石芽岭地铁站K口,"114.136192,22.627541",BX09906532,114.136192,22.627541
南岭中心(地铁站),"114.148158,22.613122",BV09202513,114.148158,22.613122
大芬(地铁站),"114.138364,22.614191",BV10249960,114.138364,22.614191
大芬地铁站C口,"114.138070,22.614413",BX10018221,114.13807,22.614413
大芬地铁站出入口,"114.138123,22.614877",BX10018219,114.138123,22.614877
大芬地铁站A2口,"114.138685,22.613930",BX10018220,114.138685,22.61393
大芬地铁站A1口,"114.138376,22.613566",BX10018218,114.138376,22.613566
莲塘(地铁站),"114.174291,22.564118",BV10242475,114.174291,22.564118
莲塘地铁站C口,"114.174487,22.564278",BX09906506,114.174487,22.564278
莲塘地铁站D口,"114.172917,22.564277",BX09906508,114.172917,22.564277
莲塘地铁站A口,"114.175617,22.563973",BX09906507,114.175617,22.563973
仙湖路地铁站B2口,"114.167257,22.564082",BX09906819,114.167257,22.564082
仙湖路地铁站B1口,"114.167063,22.564079",BX09906823,114.167063,22.564079
仙湖路(地铁站),"114.166230,22.563909",BV10677096,114.16623,22.563909
仙湖路地铁站C2口,"114.166161,22.564501",BX09906825,114.166161,22.564501
仙湖路地铁站C3口,"114.166157,22.564719",BX09906824,114.166157,22.564719
仙湖路地铁站A1口,"114.166454,22.563396",BX09906820,114.166454,22.563396
仙湖路地铁站A2口,"114.166459,22.563205",BX09906822,114.166459,22.563205
仙湖路地铁站C1口,"114.164720,22.564030",BX09906821,114.16472,22.56403
梧桐山南地铁站A2口,"114.182228,22.558737",BX09906261,114.182228,22.558737
梧桐山南地铁站A1口,"114.181888,22.558356",BX09906265,114.181888,22.558356
梧桐山南(地铁站),"114.183207,22.557850",BV10684317,114.183207,22.55785
梧桐山南地铁站D口,"114.183447,22.558118",BX09906260,114.183447,22.558118
梧桐山南地铁站C1口,"114.183780,22.556804",BX09906262,114.18378,22.556804
梧桐山南地铁站C2口,"114.183065,22.556572",BX09906263,114.183065,22.556572
六约地铁站A口,"114.180143,22.633884",BX10018261,114.180143,22.633884
六约(地铁站),"114.180646,22.634322",BV10249958,114.180646,22.634322
六约地铁站出入口,"114.180840,22.633703",BX09904167,114.18084,22.633703
六约地铁站B2口,"114.181196,22.634018",BX10032946,114.181196,22.634018
六约地铁站B1入口,"114.181229,22.633936",BX10032947,114.181229,22.633936
六约地铁站C口,"114.180620,22.634701",BX10018262,114.18062,22.634701
六约北地铁站D口,"114.176776,22.643384",BX09906162,114.176776,22.643384
六约北(地铁站),"114.175728,22.642536",BV10997904,114.175728,22.642536
六约北地铁站E口,"114.174698,22.642752",BX09906163,114.174698,22.642752
六约北地铁站A口,"114.174432,22.642248",BX09906165,114.174432,22.642248
六约北地铁站B口,"114.176321,22.642344",BX09906161,114.176321,22.642344
六约北地铁站C口,"114.177316,22.642418",BX09906164,114.177316,22.642418
沙井地铁站A口,"113.824209,22.731944",BX09906539,113.824209,22.731944
沙井(地铁站),"113.824434,22.730849",BV10527866,113.824434,22.730849
沙井地铁站D口,"113.824945,22.731426",BX09906541,113.824945,22.731426
沙井地铁站B1口,"113.824042,22.730610",BX09906538,113.824042,22.73061
沙井地铁站B2入口,"113.823993,22.730219",BX09906540,113.823993,22.730219
沙井地铁站C口,"113.824764,22.729767",BX09906537,113.824764,22.729767
横岗地铁站D口,"114.208158,22.648152",BX10018235,114.208158,22.648152
横岗(地铁站),"114.208994,22.648442",BV10249956,114.208994,22.648442
横岗地铁站A口,"114.208712,22.647676",BX10018236,114.208712,22.647676
横岗地铁站C口,"114.209184,22.649051",BX10018233,114.209184,22.649051
横岗地铁站出入口,"114.208884,22.648989",BX09916197,114.208884,22.648989
横岗地铁站B口,"114.209705,22.648554",BX10018234,114.209705,22.648554
四联地铁站D3口,"114.197322,22.649725",BX09906442,114.197322,22.649725
四联地铁站D2口,"114.196085,22.649389",BX09906435,114.196085,22.649389
四联地铁站D1口,"114.195041,22.648983",BX09906441,114.195041,22.648983
四联(地铁站),"114.194181,22.648943",BV10997905,114.194181,22.648943
四联地铁站C口,"114.193994,22.648629",BX09906436,114.193994,22.648629
四联地铁站B口,"114.193036,22.648281",BX09906440,114.193036,22.648281
四联地铁站A口,"114.192549,22.647099",BX09906439,114.192549,22.647099
四联地铁站E2口,"114.191071,22.648539",BX09906437,114.191071,22.648539
四联地铁站E1口,"114.190770,22.647744",BX09906438,114.19077,22.647744
塘坑(地铁站),"114.192725,22.639179",BV10249957,114.192725,22.639179
塘坑地铁站C口,"114.192874,22.639399",BX10018193,114.192874,22.639399
塘坑地铁站B口,"114.193023,22.639152",BX10018194,114.193023,22.639152
塘坑地铁站A口,"114.192612,22.638934",BX10018195,114.192612,22.638934
塘坑地铁站D口,"114.192448,22.639191",BX10018196,114.192448,22.639191
永湖(地铁站),"114.218042,22.658995",BV10249955,114.218042,22.658995
永湖地铁站C口,"114.217741,22.659157",BX10018183,114.217741,22.659157
永湖地铁站A1口,"114.218171,22.658358",BX10018184,114.218171,22.658358
坳背地铁站C口,"114.213588,22.669808",BX09906800,114.213588,22.669808
坳背地铁站D口,"114.212831,22.668930",BX09906799,114.212831,22.66893
坳背(地铁站),"114.213518,22.668713",BV10997908,114.213518,22.668713
坳背地铁站B口,"114.214422,22.668897",BX09906798,114.214422,22.668897
坳背地铁站A口,"114.213327,22.667584",BX09906797,114.213327,22.667584
龙城公园地铁站C口,"114.218101,22.705443",BX09901719,114.218101,22.705443
龙城公园地铁站D口,"114.218163,22.703660",BX09916508,114.218163,22.70366
黄阁坑(地铁站),"114.218135,22.719078",BV10998853,114.218135,22.719078
黄阁坑地铁站C口,"114.217819,22.720097",BX09916493,114.217819,22.720097
黄阁坑地铁站D口,"114.217877,22.718014",BX09901709,114.217877,22.718014
海山地铁站C口,"114.238313,22.556192",BX09906838,114.238313,22.556192
海山(地铁站),"114.237711,22.555537",BV10244749,114.237711,22.555537
盐田港西(地铁站),"114.246899,22.562536",BV10249916,114.246899,22.562536
海山地铁站B口,"114.238641,22.555718",BX09906836,114.238641,22.555718
盐田港西地铁站C口,"114.245795,22.561557",BX09906229,114.245795,22.561557
盐田港西地铁站A1口,"114.246742,22.562109",BX09906225,114.246742,22.562109
盐田港西地铁站A2口,"114.247141,22.562553",BX09906227,114.247141,22.562553
深外高中地铁站C口,"114.242898,22.583043",BX09906519,114.242898,22.583043
深外高中(地铁站),"114.244509,22.583784",BV10684318,114.244509,22.583784
深外高中地铁站B1口,"114.245170,22.584429",BX09906516,114.24517,22.584429
深外高中地铁站A口,"114.244608,22.583469",BX09906517,114.244608,22.583469
深外高中地铁站B2口,"114.246211,22.584363",BX09906518,114.246211,22.584363
后亭地铁站A口,"113.826585,22.753304",BX09906223,113.826585,22.753304
后亭地铁站D口,"113.827317,22.753338",BX09906222,113.827317,22.753338
后亭(地铁站),"113.826874,22.752625",BV10527863,113.826874,22.752625
后亭地铁站B口,"113.826373,22.751936",BX09906224,113.826373,22.751936
后亭地铁站C口,"113.827101,22.751822",BX09906221,113.827101,22.751822
朗下(地铁站),"113.818115,22.767913",BV09339396,113.818115,22.767913
步涌(地铁站),"113.812181,22.757325",BV11552463,113.812181,22.757325
朗下地铁站A口,"113.817731,22.767166",BX09914067,113.817731,22.767166
步涌地铁站A口,"113.812681,22.756687",BX09914074,113.812681,22.756687
步涌地铁站B口,"113.812662,22.757909",BX09914075,113.812662,22.757909
朗下地铁站B口,"113.818869,22.768188",BX09914066,113.818869,22.768188
步涌地铁站C口,"113.812177,22.758006",BX09914073,113.812177,22.758006
朗下地铁站D口,"113.817421,22.767511",BX09914065,113.817421,22.767511
朗下地铁站C1口,"113.819782,22.768639",BX09914379,113.819782,22.768639
朗下地铁站C3口,"113.818395,22.768625",BX09914068,113.818395,22.768625
步涌地铁站D口,"113.811296,22.757242",BX09914076,113.811296,22.757242
朗下地铁站C2口,"113.819538,22.769464",BX09914378,113.819538,22.769464
松岗地铁站K口,"113.825803,22.770816",BX09914059,113.825803,22.770816
松岗地铁站L口,"113.826741,22.771174",BX09914061,113.826741,22.771174
松岗(地铁站),"113.827693,22.771739",BV10242465,113.827693,22.771739
松岗地铁站J口,"113.825903,22.771397",BX09914544,113.825903,22.771397
松岗地铁站C口,"113.829663,22.771397",BX09906459,113.829663,22.771397
松岗地铁站H口,"113.826477,22.771673",BX09914060,113.826477,22.771673
松岗地铁站B口,"113.829019,22.771694",BX09906455,113.829019,22.771694
松岗地铁站D口,"113.830282,22.771646",BX09906458,113.830282,22.771646
园山西坑(地铁站),"114.224433,22.616749",BV09340734,114.224433,22.616749
园山西坑地铁站A口,"114.225315,22.615989",BX09916160,114.225315,22.615989
园山西坑地铁站B口,"114.224261,22.617210",BX09916163,114.224261,22.61721
园山西坑地铁站D口,"114.224337,22.616518",BX09916161,114.224337,22.616518
园山西坑地铁站C口,"114.223183,22.617871",BX09916162,114.223183,22.617871
园山西坑地铁站E口,"114.225485,22.615031",BX09916159,114.225485,22.615031
安良地铁站A口,"114.220470,22.626606",BX09916151,114.22047,22.626606
安良(地铁站),"114.219711,22.627282",BV11564240,114.219711,22.627282
安良地铁站D口,"114.219798,22.625930",BX09916154,114.219798,22.62593
安良地铁站B口,"114.219817,22.628225",BX09916152,114.219817,22.628225
安良地铁站C口,"114.218953,22.627957",BX09916153,114.218953,22.627957
福坑(地铁站),"114.222133,22.635664",BV11564246,114.222133,22.635664
福坑地铁站B口,"114.223043,22.635784",BX09916157,114.223043,22.635784
福坑地铁站A口,"114.221546,22.635081",BX09916158,114.221546,22.635081
福坑地铁站D口,"114.221307,22.635533",BX09916156,114.221307,22.635533
福坑地铁站C口,"114.222041,22.636345",BX09916155,114.222041,22.636345
大安(地铁站),"114.235939,22.654644",BV09271716,114.235939,22.654644
大安地铁站A口,"114.236587,22.653923",BX09916149,114.236587,22.653923
大安地铁站B口,"114.235695,22.655586",BX09916150,114.235695,22.655586
园山地铁站C口,"114.237126,22.645227",BX09916146,114.237126,22.645227
园山(地铁站),"114.238076,22.645162",BV11564242,114.238076,22.645162
园山地铁站D口,"114.237890,22.644920",BX09916147,114.23789,22.64492
园山地铁站B口,"114.238629,22.645353",BX09916145,114.238629,22.645353
园山地铁站A2口,"114.238642,22.645000",BX09916144,114.238642,22.645
园山地铁站A1口,"114.238357,22.644302",BX09916148,114.238357,22.644302
吉溪地铁站C口,"114.232167,22.659422",BX09916138,114.232167,22.659422
吉溪(地铁站),"114.232812,22.660231",BV09271717,114.232812,22.660231
吉溪地铁站A口,"114.233507,22.659774",BX09916137,114.233507,22.659774
吉溪地铁站B口,"114.232332,22.661169",BX09916139,114.232332,22.661169
大康地铁站C口,"114.229426,22.639444",BX09916164,114.229426,22.639444
大康(地铁站),"114.228856,22.638878",BV09271719,114.228856,22.638878
大康地铁站B口,"114.229716,22.638982",BX09916166,114.229716,22.638982
大康地铁站D口,"114.228013,22.638738",BX09916167,114.228013,22.638738
大康地铁站A口,"114.228265,22.638260",BX09916165,114.228265,22.63826
永湖地铁站A2口,"114.218344,22.658750",BX10018182,114.218344,22.65875
金源(地铁站),"114.230389,22.674019",BV09271718,114.230389,22.674019
金源地铁站B口,"114.229944,22.674604",BX09916142,114.229944,22.674604
金源地铁站A口,"114.231031,22.673722",BX09916143,114.231031,22.673722
金源地铁站C口,"114.229672,22.674300",BX09916141,114.229672,22.6743
金源地铁站D口,"114.231008,22.673369",BX09916140,114.231008,22.673369
大运地铁站8号口,"114.228211,22.683791",BX09906675,114.228211,22.683791
荷坳地铁站B口,"114.224899,22.673406",BX10018227,114.224899,22.673406
大运地铁站9A口,"114.228310,22.684312",BX09906686,114.22831,22.684312
荷坳(地铁站),"114.224310,22.673079",BV10249954,114.22431,22.673079
大运地铁站7号口,"114.227366,22.683904",BX09906679,114.227366,22.683904
荷坳地铁站C口,"114.224254,22.673761",BX10018228,114.224254,22.673761
大运(地铁站),"114.228163,22.685720",BV10249953,114.228163,22.68572
大运地铁站1号口,"114.228444,22.685152",BX09906672,114.228444,22.685152
大运地铁站9B口,"114.228489,22.685442",BX09906673,114.228489,22.685442
荷坳地铁站A口,"114.224330,22.672490",BX10018229,114.22433,22.67249
大运地铁站6号口,"114.227640,22.685036",BX09906688,114.22764,22.685036
大运地铁站10A口,"114.228585,22.685886",BX09906681,114.228585,22.685886
大运地铁站5号口,"114.227190,22.684755",BX09906687,114.22719,22.684755
大运地铁站14A口,"114.227798,22.685271",BX09906676,114.227798,22.685271
大运地铁站14B口,"114.227939,22.685342",BX09906685,114.227939,22.685342
荷坳地铁站D口,"114.223728,22.672822",BX10018230,114.223728,22.672822
大运地铁站3号口,"114.227560,22.686307",BX09906683,114.22756,22.686307
大运地铁站4号口,"114.226681,22.685270",BX09906674,114.226681,22.68527
大运地铁站13号口,"114.227664,22.686379",BX09916004,114.227664,22.686379
大运地铁站2号口,"114.228660,22.686461",BX09906682,114.22866,22.686461
大运地铁站14C口,"114.226900,22.685797",BX09906680,114.2269,22.685797
大运地铁站11号口,"114.227920,22.687135",BX09906689,114.22792,22.687135
大运地铁站10B口,"114.228729,22.687351",BX09906678,114.228729,22.687351
大运地铁站12号口,"114.227956,22.688377",BX09906684,114.227956,22.688377
爱联地铁站C口,"114.234384,22.698136",BX10018175,114.234384,22.698136
爱联地铁站B口,"114.235164,22.698006",BX10018176,114.235164,22.698006
爱联(地铁站),"114.234423,22.697495",BV10249952,114.234423,22.697495
爱联地铁站出入口,"114.233999,22.698052",BX10018177,114.233999,22.698052
爱联地铁站D口,"114.233825,22.697225",BX10018179,114.233825,22.697225
爱联地铁站A口,"114.234482,22.696890",BX10018178,114.234482,22.69689
爱联地铁站出入口,"114.235030,22.697500",BX09912108,114.23503,22.6975
吉祥地铁站D口,"114.243673,22.709394",BX10018284,114.243673,22.709394
吉祥(地铁站),"114.244318,22.709488",BV10249951,114.244318,22.709488
吉祥地铁站A口,"114.244292,22.708991",BX10018282,114.244292,22.708991
吉祥地铁站出入口,"114.243508,22.709862",BX10018281,114.243508,22.709862
吉祥地铁站C口,"114.244496,22.710140",BX10018283,114.244496,22.71014
吉祥地铁站出入口,"114.244396,22.709927",BX09904162,114.244396,22.709927
吉祥地铁站B口,"114.245026,22.709630",BX10018285,114.245026,22.70963
龙城公园地铁站B口,"114.219134,22.705044",BX09901720,114.219134,22.705044
龙城公园(地铁站),"114.218352,22.704536",BV11498085,114.218352,22.704536
龙城公园地铁站A口,"114.218711,22.703883",BX09901718,114.218711,22.703883
大运中心地铁站A1口,"114.222435,22.695165",BX09906444,114.222435,22.695165
大运中心地铁站A2口,"114.221802,22.695538",BX09906446,114.221802,22.695538
大运中心(地铁站),"114.220413,22.695676",BV10998865,114.220413,22.695676
大运中心地铁站B口,"114.220112,22.696262",BX09906447,114.220112,22.696262
大运中心地铁站D口,"114.220777,22.694815",BX09906448,114.220777,22.694815
大运中心地铁站C口,"114.219615,22.695777",BX09916496,114.219615,22.695777
大运中心地铁站出入口,"114.219638,22.695579",BX09916495,114.219638,22.695579
大运中心地铁站E口,"114.220957,22.693607",BX09916498,114.220957,22.693607
回龙埔地铁站D口,"114.234948,22.729312",BX09901690,114.234948,22.729312
回龙埔(地铁站),"114.235861,22.729192",BV11673024,114.235861,22.729192
回龙埔地铁站A口,"114.235032,22.728790",BX09901688,114.235032,22.72879
回龙埔地铁站C口,"114.236542,22.729357",BX09901689,114.236542,22.729357
回龙埔地铁站B口,"114.236590,22.728843",BX09916501,114.23659,22.728843
愉园地铁站C口,"114.224199,22.728734",BX09901704,114.224199,22.728734
愉园(地铁站),"114.223731,22.728338",BV11676995,114.223731,22.728338
愉园地铁站B口,"114.224355,22.728110",BX09901702,114.224355,22.72811
尚景地铁站D口,"114.242806,22.729587",BX09901727,114.242806,22.729587
尚景(地铁站),"114.243587,22.729359",BV10998866,114.243587,22.729359
愉园地铁站D口,"114.222542,22.728496",BX09901705,114.222542,22.728496
尚景地铁站A口,"114.242955,22.728999",BX09916499,114.242955,22.728999
愉园地铁站A口,"114.222831,22.727833",BX09916491,114.222831,22.727833
尚景地铁站C口,"114.244033,22.729889",BX09901728,114.244033,22.729889
尚景地铁站B口,"114.244488,22.729033",BX09901725,114.244488,22.729033
黄阁坑地铁站B口,"114.218497,22.720204",BX09901706,114.218497,22.720204
黄阁坑地铁站A1口,"114.219384,22.718938",BX09916494,114.219384,22.718938
黄阁坑地铁站A2口,"114.218601,22.718875",BX09901710,114.218601,22.718875
鸿安围地铁站A1口,"114.262823,22.591097",BX09906612,114.262823,22.591097
鸿安围(地铁站),"114.264225,22.590544",BV09183185,114.264225,22.590544
鸿安围地铁站A2口,"114.262796,22.590665",BX09906610,114.262796,22.590665
鸿安围地铁站C口,"114.264993,22.590631",BX09906613,114.264993,22.590631
鸿安围地铁站B1口,"114.264309,22.589827",BX09906609,114.264309,22.589827
鸿安围地铁站B2口,"114.265285,22.589938",BX09906611,114.265285,22.589938
盐田路地铁站E1口,"114.257047,22.590242",BX09912135,114.257047,22.590242
盐田路地铁站E2口,"114.256376,22.590042",BX09906193,114.256376,22.590042
盐田路地铁站D口,"114.256402,22.589205",BX09906192,114.256402,22.589205
盐田路(地铁站),"114.255650,22.588959",BV10684315,114.25565,22.588959
盐田路地铁站F口,"114.255743,22.589406",BX09906187,114.255743,22.589406
盐田路地铁站C口,"114.255183,22.588133",BX09906190,114.255183,22.588133
盐田路地铁站G口,"114.254859,22.588339",BX09906188,114.254859,22.588339
盐田路地铁站B2口,"114.255479,22.587360",BX09906191,114.255479,22.58736
盐田路地铁站B1口,"114.255362,22.587411",BX09915855,114.255362,22.587411
盐田路地铁站H2口,"114.253786,22.588225",BX09906195,114.253786,22.588225
盐田路地铁站H1口,"114.254063,22.588033",BX09906194,114.254063,22.588033
盐田路地铁站A口,"114.254018,22.586696",BX09912136,114.254018,22.586696
盐田路地铁站J口,"114.253487,22.586723",BX09912134,114.253487,22.586723
盐田墟地铁站C口,"114.274564,22.587834",BX09906863,114.274564,22.587834
盐田墟地铁站A口,"114.274402,22.587426",BX09906864,114.274402,22.587426
盐田墟(地铁站),"114.275568,22.587360",BV09154679,114.275568,22.58736
盐田墟地铁站B口,"114.276319,22.587011",BX09906862,114.276319,22.587011
碧头地铁站E口,"113.820153,22.785120",BX09906626,113.820153,22.78512
碧头(地铁站),"113.819958,22.784044",BV10527861,113.819958,22.784044
碧头地铁站D口,"113.820258,22.783823",BX09906623,113.820258,22.783823
碧头地铁站A口,"113.819753,22.784868",BX09906625,113.819753,22.784868
碧头地铁站C口,"113.820718,22.782605",BX09906627,113.820718,22.782605
碧头地铁站B口,"113.819767,22.783964",BX09906624,113.819767,22.783964
松岗地铁站G口,"113.829742,22.773375",BX09906454,113.829742,22.773375
松岗地铁站A口,"113.829129,22.772744",BX09906457,113.829129,22.772744
松岗地铁站F口,"113.830553,22.772822",BX09906456,113.830553,22.772822
松岗地铁站E口,"113.831146,22.772423",BX09906453,113.831146,22.772423
溪头(地铁站),"113.837650,22.774648",BV10527870,113.83765,22.774648
溪头地铁站B口,"113.836935,22.774573",BX10029410,113.836935,22.774573
溪头地铁站C1口,"113.837063,22.774210",BX10033480,113.837063,22.77421
溪头地铁站A口,"113.838234,22.774977",BX10029413,113.838234,22.774977
溪头地铁站C2口,"113.837252,22.774267",BX10033479,113.837252,22.774267
溪头地铁站D口,"113.838659,22.774522",BX10029412,113.838659,22.774522
南约地铁站E口,"114.276495,22.688377",BX09906177,114.276495,22.688377
龙城广场地铁站B口,"114.255271,22.716739",BX09906606,114.255271,22.716739
龙城广场(地铁站),"114.254592,22.716915",BV10243745,114.254592,22.716915
龙城广场地铁站A口,"114.254152,22.716413",BX09906608,114.254152,22.716413
龙城广场地铁站C口,"114.255041,22.717348",BX09906607,114.255041,22.717348
龙城广场地铁站D口,"114.253919,22.717052",BX09906605,114.253919,22.717052
龙城广场地铁站出入口,"114.254623,22.717530",BX09906604,114.254623,22.71753
嶂背地铁站B口,"114.250991,22.692522",BX09906670,114.250991,22.692522
嶂背地铁站A口,"114.251180,22.692393",BX09906671,114.25118,22.692393
嶂背(地铁站),"114.249547,22.692296",BV11380330,114.249547,22.692296
龙园地铁站D口,"114.266004,22.731327",BX09901696,114.266004,22.731327
龙园(地铁站),"114.266336,22.731005",BV10998869,114.266336,22.731005
龙园地铁站C口,"114.267155,22.730955",BX09901697,114.267155,22.730955
龙园地铁站B口,"114.266932,22.730565",BX09916506,114.266932,22.730565
盛平(地铁站),"114.252783,22.731657",BV10998860,114.252783,22.731657
盛平地铁站C口,"114.253148,22.731995",BX09916511,114.253148,22.731995
盛平地铁站B口,"114.252589,22.730880",BX09901721,114.252589,22.73088
盛平地铁站D口,"114.251940,22.732191",BX09901724,114.25194,22.732191
南联(地铁站),"114.265531,22.721967",BV10249950,114.265531,22.721967
南联地铁站C1口,"114.265838,22.722509",BX10018259,114.265838,22.722509
南联地铁站C2口,"114.265378,22.722250",BX10018258,114.265378,22.72225
南联地铁站出入口,"114.265592,22.722406",BX10026546,114.265592,22.722406
盛平地铁站A口,"114.251554,22.730948",BX09916510,114.251554,22.730948
南联地铁站B2口,"114.267221,22.722574",BX10018256,114.267221,22.722574
南联地铁站A1口,"114.265680,22.721605",BX10018260,114.26568,22.721605
南联地铁站B1口,"114.266510,22.721808",BX10018253,114.26651,22.721808
南联地铁站A2口,"114.265263,22.721379",BX10018254,114.265263,22.721379
南联地铁站B4口,"114.267326,22.721904",BX10018257,114.267326,22.721904
南联地铁站B3口,"114.267293,22.721643",BX10018255,114.267293,22.721643
双龙地铁站H口,"114.275944,22.728618",BX09902306,114.275944,22.728618
宝龙地铁站A口,"114.296939,22.688094",BX09906748,114.296939,22.688094
宝龙(地铁站),"114.297826,22.688325",BV10997906,114.297826,22.688325
宝龙地铁站D口,"114.296814,22.688540",BX09906746,114.296814,22.68854
宝龙地铁站B口,"114.298691,22.688117",BX09906747,114.298691,22.688117
宝龙地铁站C口,"114.298681,22.688559",BX09906749,114.298681,22.688559
南约地铁站C口,"114.279607,22.688421",BX09906175,114.279607,22.688421
南约(地铁站),"114.278075,22.688107",BV10997907,114.278075,22.688107
南约地铁站B口,"114.278543,22.687765",BX09906174,114.278543,22.687765
南约地铁站D口,"114.278572,22.688417",BX09906176,114.278572,22.688417
南约地铁站A口,"114.276758,22.687721",BX09906173,114.276758,22.687721
铲湾中(地铁站),"113.864971,22.536610",BV09115364,113.864971,22.53661
铲湾北(地铁站),"113.861817,22.553403",BV09115661,113.861817,22.553403
铲湾南(地铁站),"113.867669,22.528366",BV09115360,113.867669,22.528366
新塘围(地铁站),"114.286251,22.725489",BV11490961,114.286251,22.725489
新塘围地铁站C口,"114.287169,22.725327",BX09901406,114.287169,22.725327
新塘围地铁站D口,"114.285888,22.725926",BX09901404,114.285888,22.725926
新塘围地铁站B口,"114.286907,22.724861",BX09901403,114.286907,22.724861
新塘围地铁站A口,"114.285323,22.725396",BX09901405,114.285323,22.725396
梨园(地铁站),"114.281737,22.734833",BV10793842,114.281737,22.734833
龙东地铁站A1口,"114.294889,22.722585",BX09901400,114.294889,22.722585
梨园地铁站B口,"114.282162,22.735534",BX09914135,114.282162,22.735534
梨园地铁站D口,"114.281374,22.734061",BX09914134,114.281374,22.734061
龙东地铁站D口,"114.295982,22.722533",BX09901807,114.295982,22.722533
梨园地铁站C口,"114.281590,22.735605",BX09914136,114.28159,22.735605
龙东地铁站A2口,"114.294596,22.722041",BX09901402,114.294596,22.722041
龙东地铁站A3口,"114.295389,22.721394",BX09901401,114.295389,22.721394
龙东(地铁站),"114.297533,22.721221",BV10998859,114.297533,22.721221
龙东地铁站C口,"114.297301,22.721516",BX09901805,114.297301,22.721516
龙东地铁站B口,"114.297686,22.720661",BX09901806,114.297686,22.720661
双龙地铁站B口,"114.278201,22.728719",BX10018272,114.278201,22.728719
双龙地铁站C口,"114.277767,22.729295",BX10018275,114.277767,22.729295
双龙(地铁站),"114.277422,22.728806",BV10249875,114.277422,22.728806
双龙地铁站F口,"114.277678,22.729651",BX09901700,114.277678,22.729651
双龙地铁站出入口,"114.278053,22.728603",BX10012542,114.278053,22.728603
双龙地铁站A口,"114.277128,22.728221",BX10018273,114.277128,22.728221
双龙地铁站D口,"114.277185,22.729026",BX10018271,114.277185,22.729026
双龙地铁站E口,"114.277321,22.729363",BX09901701,114.277321,22.729363
双龙地铁站G1口,"114.276771,22.729236",BX09901699,114.276771,22.729236
双龙地铁站G2口,"114.276810,22.729164",BX09902222,114.27681,22.729164
双龙地铁站出入口,"114.276792,22.729199",BX09902223,114.276792,22.729199
坪西(地铁站),"114.282240,22.763426",BV10793839,114.28224,22.763426
坪西地铁站A口,"114.282202,22.762619",BX09914141,114.282202,22.762619
坪西地铁站B口,"114.282800,22.763869",BX09914047,114.2828,22.763869
坪西地铁站D口,"114.281676,22.762833",BX09914046,114.281676,22.762833
坪西地铁站C口,"114.281825,22.764020",BX09914048,114.281825,22.76402
低碳城(地铁站),"114.289355,22.771010",BV10793835,114.289355,22.77101
低碳城地铁站A口,"114.288618,22.770271",BX09914117,114.288618,22.770271
新生地铁站B口,"114.283425,22.748907",BX09914031,114.283425,22.748907
新生地铁站C口,"114.282787,22.749059",BX09914123,114.282787,22.749059
新生(地铁站),"114.283024,22.747988",BV11443531,114.283024,22.747988
低碳城地铁站B口,"114.290128,22.771021",BX09914026,114.290128,22.771021
低碳城地铁站D口,"114.288857,22.771378",BX09914120,114.288857,22.771378
低碳城地铁站C口,"114.289869,22.771496",BX09914119,114.289869,22.771496
新生地铁站D口,"114.282359,22.747741",BX09914121,114.282359,22.747741
新生地铁站A口,"114.283296,22.746931",BX09914124,114.283296,22.746931
新生地铁站E口,"114.282568,22.746901",BX09914122,114.282568,22.746901
白石塘(地铁站),"114.302868,22.775124",BV11411856,114.302868,22.775124
白石塘地铁站D口,"114.302110,22.774900",BX09914137,114.30211,22.7749
白石塘地铁站A口,"114.302090,22.774479",BX09914138,114.30209,22.774479
白石塘地铁站C口,"114.303023,22.775476",BX09914139,114.303023,22.775476
白石塘地铁站B口,"114.303549,22.775283",BX09914140,114.303549,22.775283
坪山人民医院(地铁站),"114.323066,22.666443",BV09297282,114.323066,22.666443
锦龙地铁站D口,"114.332978,22.680161",BX09906558,114.332978,22.680161
锦龙地铁站A口,"114.333285,22.679580",BX09906557,114.333285,22.67958
汤坑(地铁站),"114.332568,22.672916",BV09297284,114.332568,22.672916
锦龙(地铁站),"114.333847,22.680183",BV10997911,114.333847,22.680183
锦龙地铁站C2口,"114.333944,22.680501",BX09906554,114.333944,22.680501
锦龙地铁站B口,"114.334767,22.680388",BX09906555,114.334767,22.680388
锦龙地铁站C1口,"114.334470,22.680774",BX09906556,114.33447,22.680774
新围(地铁站),"114.331476,22.687197",BV09297283,114.331476,22.687197
南塘围(地铁站),"114.307715,22.666417",BV09297280,114.307715,22.666417
坪山地铁站A口,"114.326499,22.705342",BX09901770,114.326499,22.705342
坪山地铁站D口,"114.326585,22.705848",BX09901769,114.326585,22.705848
坪山高铁站(地铁站),"114.327462,22.705473",BV09079169,114.327462,22.705473
坪山高铁站地铁站A口,"114.327149,22.705384",BX09903267,114.327149,22.705384
坪山(地铁站),"114.327817,22.705893",BV10998862,114.327817,22.705893
坪山高铁站地铁站B口,"114.327787,22.705515",BX09903268,114.327787,22.705515
坪山地铁站C口,"114.327994,22.706105",BX09901768,114.327994,22.706105
坪山地铁站B口,"114.328501,22.705734",BX09901771,114.328501,22.705734
宝龙同乐地铁站B口,"114.312838,22.708593",BX09901793,114.312838,22.708593
宝龙同乐地铁站C口,"114.313204,22.709236",BX09901795,114.313204,22.709236
宝龙同乐(地铁站),"114.312538,22.709229",BV10998868,114.312538,22.709229
宝龙同乐地铁站A口,"114.311473,22.709141",BX09901794,114.311473,22.709141
宝龙同乐地铁站D口,"114.311733,22.709810",BX09901792,114.311733,22.70981
宝山(地铁站),"114.330378,22.698619",BV09297281,114.330378,22.698619
坪地六联地铁站A口,"114.321489,22.786268",BX09914129,114.321489,22.786268
坪地六联地铁站D口,"114.321202,22.786653",BX09914035,114.321202,22.786653
坪地六联(地铁站),"114.322059,22.786983",BV10793840,114.322059,22.786983
坪地六联地铁站B口,"114.322872,22.787374",BX09914127,114.322872,22.787374
坪地六联地铁站C口,"114.322529,22.787719",BX09914126,114.322529,22.787719
富坪地铁站C口,"114.311676,22.780890",BX09914133,114.311676,22.78089
富坪地铁站B口,"114.311670,22.780324",BX09914037,114.31167,22.780324
富坪(地铁站),"114.310908,22.780155",BV10793838,114.310908,22.780155
富坪地铁站A口,"114.310944,22.779558",BX09914131,114.310944,22.779558
富坪地铁站D口,"114.310003,22.779919",BX09914132,114.310003,22.779919
碧海湾地铁站B口,"113.856937,22.574141",BX09906552,113.856937,22.574141
碧海湾(地铁站),"113.856093,22.575073",BV10527859,113.856093,22.575073
碧海湾地铁站A口,"113.855672,22.575151",BX09906553,113.855672,22.575151
碧海湾地铁站C口,"113.857449,22.574399",BX09906550,113.857449,22.574399
碧海湾地铁站D口,"113.856078,22.575531",BX09906551,113.856078,22.575531
碧海湾地铁站出入口,"113.857398,22.574757",BX09916203,113.857398,22.574757
碧海湾地铁站E口,"113.855514,22.575991",BX09906549,113.855514,22.575991
西乡地铁站C口,"113.861755,22.575538",BX10018585,113.861755,22.575538
西乡(地铁站),"113.863048,22.575149",BV10249968,113.863048,22.575149
西乡地铁站D口,"113.862449,22.575356",BX10018579,113.862449,22.575356
西乡地铁站B口,"113.862120,22.576292",BX10018581,113.86212,22.576292
西乡地铁站A口,"113.863157,22.575455",BX10018583,113.863157,22.575455
西乡地铁站G口,"113.863955,22.573933",BX10018584,113.863955,22.573933
西乡地铁站F口,"113.863222,22.575219",BX10018580,113.863222,22.575219
西乡地铁站E口,"113.864316,22.574422",BX10018582,113.864316,22.574422
海城(地铁站),"113.864575,22.561376",BV09115362,113.864575,22.561376
溪涌(地铁站),"114.360006,22.612061",BV10804220,114.360006,22.612061
坪环地铁站D口,"114.348030,22.684909",BX09901775,114.34803,22.684909
坪环(地铁站),"114.346762,22.685287",BV10998864,114.346762,22.685287
坪环地铁站出入口,"114.346728,22.685488",BX09901772,114.346728,22.685488
坪环地铁站A1口,"114.345238,22.685782",BX09901774,114.345238,22.685782
东纵纪念馆地铁站A口,"114.354339,22.685577",BX09901779,114.354339,22.685577
东纵纪念馆(地铁站),"114.355129,22.685981",BV10998855,114.355129,22.685981
坪环地铁站A2口,"114.345616,22.686124",BX09901773,114.345616,22.686124
东纵纪念馆地铁站D口,"114.354378,22.686051",BX09901782,114.354378,22.686051
东纵纪念馆地铁站B口,"114.355850,22.685818",BX09901780,114.35585,22.685818
东纵纪念馆地铁站C口,"114.355850,22.686297",BX09901781,114.35585,22.686297
比亚迪北(地铁站),"114.361085,22.682131",BV09079172,114.361085,22.682131
比亚迪北地铁站A口,"114.360982,22.681615",BX09903248,114.360982,22.681615
比亚迪北地铁站B口,"114.361435,22.681870",BX09903249,114.361435,22.68187
龙背(地铁站),"114.359490,22.687313",BV09079163,114.35949,22.687313
龙背地铁站A口,"114.359178,22.687145",BX09903263,114.359178,22.687145
坪山围地铁站A口,"114.343162,22.689745",BX09906466,114.343162,22.689745
龙背地铁站B口,"114.359673,22.687197",BX09903264,114.359673,22.687197
沙壆地铁站D口,"114.364158,22.686645",BX09901763,114.364158,22.686645
坪山中心地铁站D口,"114.350855,22.705527",BX09906357,114.350855,22.705527
坪山中心地铁站A口,"114.351676,22.706009",BX09906354,114.351676,22.706009
坪山广场地铁站D1口,"114.349064,22.701934",BX09906135,114.349064,22.701934
坪山广场地铁站C2口,"114.349670,22.701759",BX09906132,114.34967,22.701759
坪山中心(地铁站),"114.351613,22.706898",BV10997910,114.351613,22.706898
坪山广场地铁站D2口,"114.348335,22.701513",BX09906130,114.348335,22.701513
坪山广场(地铁站),"114.348763,22.700587",BV10997914,114.348763,22.700587
坪山广场地铁站C1口,"114.349814,22.700755",BX09906133,114.349814,22.700755
坪山广场地铁站B口,"114.349210,22.700828",BX09906131,114.34921,22.700828
坪山中心地铁站C口,"114.351507,22.707827",BX09906355,114.351507,22.707827
坪山中心地铁站B口,"114.352049,22.707807",BX09906356,114.352049,22.707807
坪山广场地铁站E口,"114.347751,22.699597",BX09906134,114.347751,22.699597
坪山广场地铁站A口,"114.348398,22.699362",BX09906136,114.348398,22.699362
坪山剧院(地铁站),"114.343017,22.704823",BV09297278,114.343017,22.704823
未来城(地铁站),"114.352596,22.698404",BV09079164,114.352596,22.698404
坪山中心(云巴1号线)(地铁站),"114.351609,22.710968",BV09143898,114.351609,22.710968
文化聚落(地铁站),"114.345531,22.710164",BV09079171,114.345531,22.710164
文化聚落地铁站A口,"114.346015,22.710021",BX09903259,114.346015,22.710021
未来城地铁站B口,"114.352556,22.698590",BX09903255,114.352556,22.69859
坪山中心(云巴1号线)地铁站A口,"114.351722,22.710799",BX09903251,114.351722,22.710799
未来城地铁站A口,"114.352840,22.698409",BX09903254,114.35284,22.698409
坪山中心(云巴1号线)地铁站B口,"114.351300,22.711213",BX09903250,114.3513,22.711213
文化聚落地铁站B口,"114.345485,22.710310",BX09903258,114.345485,22.71031
中芯国际(地铁站),"114.355789,22.711529",BV09079167,114.355789,22.711529
站前路东(地铁站),"114.340490,22.708480",BV09079173,114.34049,22.70848
中芯国际地铁站B口,"114.355633,22.711653",BX09903269,114.355633,22.711653
站前路东地铁站A2口,"114.340670,22.708449",BX09903261,114.34067,22.708449
中芯国际地铁站A口,"114.356246,22.711633",BX09903270,114.356246,22.711633
站前路东地铁站A1口,"114.340379,22.708388",BX09903262,114.340379,22.708388
站前路东地铁站B口,"114.340342,22.708527",BX09903260,114.340342,22.708527
燕子岭(地铁站),"114.361529,22.702852",BV09079166,114.361529,22.702852
燕子岭地铁站B口,"114.361612,22.703122",BX09903266,114.361612,22.703122
燕子岭地铁站A口,"114.361721,22.702697",BX09903265,114.361721,22.702697
综合保税区(地铁站),"114.361191,22.709298",BV09079165,114.361191,22.709298
综合保税区地铁站A口,"114.361161,22.709151",BX09903253,114.361161,22.709151
综合保税区地铁站B口,"114.361086,22.709347",BX09903252,114.361086,22.709347
新和地铁站C口,"114.336210,22.702562",BX09902224,114.33621,22.702562
坪山围地铁站C口,"114.344077,22.692971",BX09906470,114.344077,22.692971
新和(地铁站),"114.335478,22.703141",BV11393407,114.335478,22.703141
新和地铁站B口,"114.335793,22.702280",BX09901776,114.335793,22.70228
六和(地铁站),"114.337737,22.696013",BV11393405,114.337737,22.696013
新和地铁站D口,"114.335446,22.703847",BX09901778,114.335446,22.703847
坪山围(地铁站),"114.343660,22.691398",BV10997909,114.34366,22.691398
新和地铁站A口,"114.335112,22.702969",BX09901777,114.335112,22.702969
坪山围地铁站D口,"114.343604,22.692046",BX09906472,114.343604,22.692046
坪山围地铁站B口,"114.344103,22.691400",BX09906469,114.344103,22.6914
六和地铁站A1口,"114.337175,22.696460",BX09901803,114.337175,22.69646
六和地铁站B2口,"114.337900,22.695256",BX09901802,114.3379,22.695256
坪山围地铁站E口,"114.342579,22.691605",BX09906473,114.342579,22.691605
六和地铁站B1口,"114.337809,22.694761",BX09901804,114.337809,22.694761
自然博物馆西(地铁站),"114.358206,22.691926",BV09079168,114.358206,22.691926
坪山围地铁站G口,"114.341411,22.692336",BX09906467,114.341411,22.692336
坪山围地铁站H口,"114.341511,22.691915",BX09906471,114.341511,22.691915
坪山围地铁站F口,"114.342153,22.691706",BX09906474,114.342153,22.691706
六和地铁站A2口,"114.336469,22.696185",BX09901800,114.336469,22.696185
自然博物馆西地铁站B口,"114.358401,22.691902",BX09903256,114.358401,22.691902
六和地铁站A3口,"114.336102,22.695763",BX09901801,114.336102,22.695763
自然博物馆西地铁站A口,"114.358052,22.691667",BX09903257,114.358052,22.691667
上洞(地铁站),"114.376001,22.612462",BV10804217,114.376001,22.612462
燕子湖(地铁站),"114.375337,22.688473",BV10998854,114.375337,22.688473
燕子湖地铁站A口,"114.374713,22.687994",BX09901799,114.374713,22.687994
燕子湖地铁站B口,"114.376501,22.688611",BX09901798,114.376501,22.688611
燕子湖地铁站C口,"114.376327,22.689072",BX09901797,114.376327,22.689072
燕子湖地铁站D口,"114.374353,22.688436",BX09901796,114.374353,22.688436
沙壆地铁站B口,"114.365675,22.686309",BX09901762,114.365675,22.686309
沙壆(地铁站),"114.364930,22.686481",BV10998863,114.36493,22.686481
沙壆地铁站C口,"114.365690,22.686676",BX09901761,114.36569,22.686676
沙壆地铁站A口,"114.364233,22.686302",BX09901760,114.364233,22.686302
南布(地铁站),"114.376997,22.705764",BV09297285,114.376997,22.705764
石井(地铁站),"114.383047,22.691854",BV10998861,114.383047,22.691854
石井地铁站C口,"114.383532,22.692348",BX09901766,114.383532,22.692348
石井地铁站D口,"114.382253,22.691735",BX09901765,114.382253,22.691735
石井地铁站A口,"114.382524,22.691402",BX09901767,114.382524,22.691402
石井地铁站B口,"114.383693,22.691881",BX09901764,114.383693,22.691881
固戍地铁站A口,"113.847597,22.600465",BX10018502,113.847597,22.600465
固戍地铁站F口,"113.846869,22.600216",BX10018498,113.846869,22.600216
固戍(地铁站),"113.846792,22.601363",BV10242458,113.846792,22.601363
固戍地铁站E口,"113.846442,22.601148",BX10018500,113.846442,22.601148
固戍地铁站C口,"113.846866,22.601971",BX10018499,113.846866,22.601971
固戍地铁站D口,"113.845637,22.602799",BX10018501,113.845637,22.602799
聚龙(地铁站),"114.381669,22.727522",BV09297279,114.381669,22.727522
坑梓地铁站A口,"114.370386,22.744714",BX09906650,114.370386,22.744714
坑梓地铁站C口,"114.371691,22.745959",BX09906648,114.371691,22.745959
坑梓地铁站B口,"114.371844,22.745327",BX09906649,114.371844,22.745327
坑梓(地铁站),"114.370956,22.745384",BV10997902,114.370956,22.745384
坑梓地铁站D口,"114.369686,22.745209",BX09906647,114.369686,22.745209
土洋(地铁站),"114.403444,22.615534",BV10804218,114.403444,22.615534
葵涌(地铁站),"114.419558,22.629691",BV10804216,114.419558,22.629691
技术大学地铁站C口,"114.402500,22.698643",BX09901786,114.4025,22.698643
技术大学地铁站B口,"114.401831,22.698198",BX09901785,114.401831,22.698198
技术大学(地铁站),"114.400658,22.698381",BV10998857,114.400658,22.698381
技术大学地铁站D3口,"114.400453,22.698569",BX09901787,114.400453,22.698569
技术大学地铁站A口,"114.401035,22.697639",BX09901783,114.401035,22.697639
技术大学地铁站D2口,"114.400236,22.698606",BX09901788,114.400236,22.698606
技术大学地铁站D1口,"114.399831,22.698570",BX09901784,114.399831,22.69857
田心(地铁站),"114.414221,22.693740",BV10998858,114.414221,22.69374
田心地铁站C口,"114.413632,22.693912",BX09901790,114.413632,22.693912
田心地铁站A口,"114.414337,22.693575",BX09901789,114.414337,22.693575
田心地铁站B口,"114.414314,22.693908",BX09901791,114.414314,22.693908
沙田地铁站B口,"114.401968,22.756125",BX09906813,114.401968,22.756125
沙田地铁站C口,"114.401360,22.756678",BX09906811,114.40136,22.756678
沙田(地铁站),"114.400589,22.756150",BV10997913,114.400589,22.75615
沙田地铁站A口,"114.399750,22.755480",BX09906810,114.39975,22.75548
沙田地铁站D口,"114.399222,22.756042",BX09906812,114.399222,22.756042
葵涌东(地铁站),"114.432905,22.632516",BV09299993,114.432905,22.632516
钟屋南地铁站C口,"113.857823,22.619207",BX09901219,113.857823,22.619207
钟屋南地铁站B口,"113.858574,22.619537",BX09901221,113.858574,22.619537
钟屋南(地铁站),"113.858951,22.618874",BV10996653,113.858951,22.618874
钟屋南地铁站A口,"113.859526,22.618557",BX09901218,113.859526,22.618557
钟屋南地铁站D口,"113.859065,22.617636",BX09901222,113.859065,22.617636
钟屋南地铁站E1口,"113.860472,22.617856",BX09901220,113.860472,22.617856
黄田地铁站D口,"113.846486,22.628853",BX09906512,113.846486,22.628853
黄田地铁站A口,"113.846911,22.629174",BX09906515,113.846911,22.629174
钟屋南地铁站E2口,"113.859682,22.616992",BX09901217,113.859682,22.616992
黄田(地铁站),"113.845683,22.630205",BV10996667,113.845683,22.630205
黄田地铁站B口,"113.846072,22.630522",BX09906513,113.846072,22.630522
航城医院(地铁站),"113.844386,22.617677",BV09203791,113.844386,22.617677
黄田地铁站C口,"113.844462,22.631130",BX09906514,113.844462,22.63113
西乡桃源地铁站B口,"113.862173,22.611885",BX09901207,113.862173,22.611885
西乡桃源(地铁站),"113.862348,22.611019",BV10996664,113.862348,22.611019
航城(地铁站),"113.859390,22.609626",BV09203795,113.85939,22.609626
西乡桃源地铁站C口,"113.861891,22.610344",BX09901209,113.861891,22.610344
西乡桃源地铁站A口,"113.862972,22.610478",BX09901208,113.862972,22.610478
松岗公园地铁站A口,"113.848859,22.778371",BX10029439,113.848859,22.778371
松岗公园地铁站D口,"113.849036,22.778023",BX10029440,113.849036,22.778023
松岗公园(地铁站),"113.848310,22.777920",BV10249897,113.84831,22.77792
松岗公园地铁站B口,"113.847594,22.777902",BX10029438,113.847594,22.777902
松岗公园地铁站C口,"113.847740,22.777531",BX10029437,113.84774,22.777531
薯田埔地铁站B口,"113.866937,22.780889",BX09906353,113.866937,22.780889
薯田埔(地铁站),"113.867694,22.780928",BV10527879,113.867694,22.780928
薯田埔地铁站C口,"113.867295,22.780402",BX09906350,113.867295,22.780402
西部物流(地铁站),"113.883760,22.496961",BV09115355,113.88376,22.496961
荔湾地铁站A口,"113.893445,22.497157",BX10027330,113.893445,22.497157
荔湾(地铁站),"113.893485,22.497821",BV10868017,113.893485,22.497821
荔湾地铁站C口,"113.893241,22.498247",BX10027456,113.893241,22.498247
荔湾地铁站B口,"113.894211,22.497874",BX10027329,113.894211,22.497874
赤湾地铁站E口,"113.896865,22.479634",BX09906706,113.896865,22.479634
赤湾地铁站D口,"113.897149,22.479831",BX09906704,113.897149,22.479831
前湾公园(地铁站),"113.889552,22.516108",BV10868014,113.889552,22.516108
前湾公园地铁站A口,"113.889610,22.515032",BX10027327,113.88961,22.515032
妈湾地铁站A口,"113.885663,22.508581",BX10027332,113.885663,22.508581
妈湾(地铁站),"113.885929,22.507904",BV10868015,113.885929,22.507904
前湾公园地铁站C口,"113.890038,22.516718",BX10027326,113.890038,22.516718
听海路(地铁站),"113.874467,22.513613",BV09115354,113.874467,22.513613
妈湾地铁站C口,"113.886015,22.507131",BX10027333,113.886015,22.507131
前保(地铁站),"113.876137,22.508442",BV09115361,113.876137,22.508442
妈湾地铁站D口,"113.886720,22.506493",BX10027830,113.88672,22.506493
铁路公园地铁站C口,"113.889456,22.503306",BX10027323,113.889456,22.503306
铁路公园(地铁站),"113.889969,22.502908",BV10868018,113.889969,22.502908
前湾(地铁站),"113.895455,22.521820",BV10724147,113.895455,22.52182
铁路公园地铁站B口,"113.889931,22.503290",BX10027324,113.889931,22.50329
前湾地铁站E1口,"113.894507,22.522523",BX10027947,113.894507,22.522523
前湾地铁站F口,"113.895105,22.521895",BX10027811,113.895105,22.521895
铁路公园地铁站A口,"113.890304,22.502707",BX10027325,113.890304,22.502707
前湾地铁站E2口,"113.894722,22.522339",BX10027946,113.894722,22.522339
前湾地铁站D口,"113.895000,22.523083",BX10027948,113.895,22.523083
铁路公园地铁站D口,"113.890032,22.502390",BX10027829,113.890032,22.50239
前湾地铁站B口,"113.896253,22.522145",BX10027331,113.896253,22.522145
上川一路(地铁站),"113.889751,22.571682",BV09203792,113.889751,22.571682
宝体地铁站E口,"113.879728,22.561865",BX10018521,113.879728,22.561865
宝体(地铁站),"113.880641,22.560741",BV10249970,113.880641,22.560741
宝体地铁站B口,"113.881457,22.560692",BX10018522,113.881457,22.560692
宝体地铁站F口,"113.879799,22.561137",BX10018525,113.879799,22.561137
宝体地铁站C口,"113.880721,22.559957",BX10018520,113.880721,22.559957
宝体地铁站A口,"113.882183,22.559725",BX10018523,113.882183,22.559725
宝体地铁站D口,"113.881063,22.559627",BX10018524,113.881063,22.559627
西乡公园(地铁站),"113.882626,22.578524",BV09115359,113.882626,22.578524
坪洲地铁站A口,"113.871395,22.568676",BX10018485,113.871395,22.568676
坪洲(地铁站),"113.870711,22.568908",BV10249969,113.870711,22.568908
坪洲地铁站D口,"113.871066,22.568371",BX10018487,113.871066,22.568371
坪洲地铁站B口,"113.870396,22.569446",BX10018486,113.870396,22.569446
坪洲地铁站C口,"113.869999,22.569219",BX10018488,113.869999,22.569219
翻身(地铁站),"113.893232,22.559690",BV10249946,113.893232,22.55969
翻身地铁站C口,"113.893502,22.560229",BX10018661,113.893502,22.560229
翻身地铁站B口,"113.893779,22.559893",BX10018662,113.893779,22.559893
翻身地铁站A口,"113.892967,22.559128",BX10018663,113.892967,22.559128
宝安地铁站D口,"113.880062,22.555507",BX09906695,113.880062,22.555507
上川(地铁站),"113.895129,22.577838",BV10996654,113.895129,22.577838
上川地铁站G口,"113.893873,22.578853",BX09901200,113.893873,22.578853
上川地铁站F2口,"113.892833,22.579371",BX09916479,113.892833,22.579371
上川地铁站H口,"113.896028,22.576746",BX09901206,113.896028,22.576746
上川地铁站F1口,"113.892507,22.580219",BX09901488,113.892507,22.580219
上川地铁站C口,"113.894990,22.578257",BX09916475,113.89499,22.578257
上川地铁站B1口,"113.896395,22.576851",BX09916477,113.896395,22.576851
上川地铁站B2口,"113.895734,22.577503",BX09916478,113.895734,22.577503
上川地铁站D口,"113.894165,22.579060",BX09916474,113.894165,22.57906
上川地铁站E口,"113.893731,22.580122",BX09901492,113.893731,22.580122
机场北(地铁站),"113.798296,22.651433",BV10680166,113.798296,22.651433
机场北地铁站C口,"113.798152,22.650827",BX09906240,113.798152,22.650827
机场北地铁站A口,"113.797864,22.652064",BX09906243,113.797864,22.652064
机场北地铁站B口,"113.798606,22.650714",BX09906239,113.798606,22.650714
机场北地铁站E口,"113.798259,22.652207",BX09906242,113.798259,22.652207
机场北地铁站D口,"113.799346,22.650495",BX09906241,113.799346,22.650495
宝田一路地铁站A口,"113.879291,22.594712",BX09901473,113.879291,22.594712
宝田一路(地铁站),"113.878477,22.594523",BV10996650,113.878477,22.594523
宝田一路地铁站C口,"113.878748,22.593881",BX09901179,113.878748,22.593881
宝田一路地铁站B口,"113.877831,22.594861",BX09901178,113.877831,22.594861
宝安客运站(地铁站),"113.883674,22.589332",BV10996668,113.883674,22.589332
宝安客运站地铁站B口,"113.884066,22.589892",BX09916471,113.884066,22.589892
宝安客运站地铁站C口,"113.882765,22.589346",BX09901196,113.882765,22.589346
宝安客运站地铁站A口,"113.884390,22.589000",BX09916470,113.88439,22.589
宝安客运站地铁站D口,"113.884189,22.588457",BX09916469,113.884189,22.588457
流塘地铁站C口,"113.888175,22.584500",BX09901229,113.888175,22.5845
流塘地铁站B2口,"113.888805,22.584582",BX09901228,113.888805,22.584582
平峦山地铁站A口,"113.870589,22.602826",BX09901192,113.870589,22.602826
流塘(地铁站),"113.889292,22.583729",BV10996673,113.889292,22.583729
流塘地铁站B1口,"113.889632,22.584333",BX09901226,113.889632,22.584333
平峦山(地铁站),"113.869771,22.603183",BV10996651,113.869771,22.603183
流塘地铁站D口,"113.888680,22.583578",BX09901454,113.88868,22.583578
流塘地铁站A口,"113.889885,22.583449",BX09901227,113.889885,22.583449
平峦山地铁站B口,"113.869728,22.603689",BX09900948,113.869728,22.603689
平峦山地铁站C口,"113.869075,22.603622",BX09901191,113.869075,22.603622
流塘地铁站G1口,"113.890053,22.582673",BX09901225,113.890053,22.582673
流塘地铁站G2口,"113.889984,22.582789",BX09902429,113.889984,22.582789
合水口地铁站B口,"113.880381,22.782126",BX10029449,113.880381,22.782126
合水口(地铁站),"113.880928,22.781610",BV10527869,113.880928,22.78161
合水口地铁站A口,"113.881903,22.781534",BX10029448,113.881903,22.781534
合水口地铁站C口,"113.880138,22.781559",BX10029450,113.880138,22.781559
合水口地铁站D口,"113.881443,22.781051",BX10029451,113.881443,22.781051
公明广场地铁站出入口,"113.889231,22.777580",BX09912659,113.889231,22.77758
公明广场地铁站B口,"113.890758,22.778056",BX10029401,113.890758,22.778056
公明广场地铁站出入口,"113.889461,22.777320",BX09912658,113.889461,22.77732
上村(地铁站),"113.894324,22.784595",BV09268871,113.894324,22.784595
公明广场地铁站C口,"113.890482,22.777491",BX10029398,113.890482,22.777491
公明广场(地铁站),"113.891407,22.777428",BV10249894,113.891407,22.777428
公明广场地铁站A口,"113.892412,22.777528",BX10029399,113.892412,22.777528
公明广场地铁站D口,"113.892403,22.776724",BX10029400,113.892403,22.776724
下村(地铁站),"113.894614,22.793328",BV11496172,113.894614,22.793328
薯田埔地铁站A口,"113.868331,22.781419",BX09906352,113.868331,22.781419
薯田埔地铁站D口,"113.868506,22.780851",BX09906351,113.868506,22.780851
李松蓢(地铁站),"113.894285,22.804450",BV09268868,113.894285,22.80445
桥头西(地铁站),"113.797429,22.683097",BV10996666,113.797429,22.683097
桥头西地铁站A口,"113.797833,22.683044",BX09901216,113.797833,22.683044
桥头西地铁站C口,"113.796952,22.683415",BX09901214,113.796952,22.683415
桥头西地铁站B口,"113.797944,22.683441",BX09901215,113.797944,22.683441
福永地铁站A口,"113.805537,22.674373",BX09906329,113.805537,22.674373
福永(地铁站),"113.806076,22.673562",BV10249452,113.806076,22.673562
福永地铁站B口,"113.805550,22.672682",BX09906333,113.80555,22.672682
福永地铁站F口,"113.806651,22.675964",BX09906332,113.806651,22.675964
福永地铁站D口,"113.806506,22.674129",BX09906331,113.806506,22.674129
福永地铁站C口,"113.806469,22.672681",BX09906334,113.806469,22.672681
福永地铁站E口,"113.807604,22.675062",BX09906330,113.807604,22.675062
福海西(地铁站),"113.789475,22.688385",BV10996656,113.789475,22.688385
福海西地铁站B口,"113.789751,22.687776",BX09901211,113.789751,22.687776
福海西地铁站A口,"113.789057,22.687827",BX09901212,113.789057,22.687827
福海西地铁站C口,"113.789861,22.688849",BX09901210,113.789861,22.688849
福海西地铁站D口,"113.789144,22.688911",BX09901213,113.789144,22.688911
海上世界地铁站G口,"113.914177,22.486096",BX09906233,113.914177,22.486096
海上世界地铁站H口,"113.913477,22.484839",BX09906230,113.913477,22.484839
海上世界地铁站F口,"113.914511,22.485722",BX09906231,113.914511,22.485722
海上世界(地铁站),"113.915111,22.485101",BV10244034,113.915111,22.485101
海上世界地铁站E口,"113.913839,22.484689",BX09906234,113.913839,22.484689
海上世界地铁站C口,"113.915116,22.485795",BX09906232,113.915116,22.485795
海上世界地铁站出入口,"113.914605,22.485020",BX09906238,113.914605,22.48502
海上世界地铁站D口,"113.914686,22.484678",BX09906236,113.914686,22.484678
海上世界地铁站B口,"113.915418,22.485201",BX09906235,113.915418,22.485201
海上世界地铁站A口,"113.915073,22.484155",BX09906237,113.915073,22.484155
水湾地铁站D口,"113.918974,22.488557",BX09906420,113.918974,22.488557
水湾(地铁站),"113.919686,22.488389",BV10249986,113.919686,22.488389
水湾地铁站出入口,"113.919106,22.488811",BX09912107,113.919106,22.488811
水湾地铁站C口,"113.920238,22.488635",BX09906421,113.920238,22.488635
花果山地铁站A口,"113.918666,22.493590",BX09906580,113.918666,22.49359
花果山(地铁站),"113.919046,22.494352",BV10996660,113.919046,22.494352
花果山地铁站C2口,"113.918737,22.494275",BX09906578,113.918737,22.494275
花果山地铁站C1口,"113.919066,22.494694",BX09906577,113.919066,22.494694
花果山地铁站B口,"113.919513,22.494638",BX09906579,113.919513,22.494638
蛇口港(地铁站),"113.912331,22.476626",BV10249985,113.912331,22.476626
蛇口港地铁站C口,"113.912615,22.477139",BX09906809,113.912615,22.477139
蛇口港地铁站D1口,"113.911568,22.476402",BX09906808,113.911568,22.476402
四海地铁站J口,"113.921370,22.499582",BX09901076,113.92137,22.499582
四海地铁站A口,"113.921847,22.499340",BX09901079,113.921847,22.49934
四海(地铁站),"113.921742,22.500336",BV10996665,113.921742,22.500336
赤湾(地铁站),"113.897525,22.479227",BV10249984,113.897525,22.479227
赤湾地铁站C口,"113.898179,22.478859",BX09906705,113.898179,22.478859
赤湾地铁站B口,"113.898059,22.478549",BX09906707,113.898059,22.478549
四海地铁站F口,"113.921586,22.500500",BX09901075,113.921586,22.5005
赤湾地铁站A口,"113.897216,22.479266",BX09912096,113.897216,22.479266
四海地铁站D口,"113.922424,22.501038",BX09901077,113.922424,22.501038
荔林地铁站D口,"113.913245,22.512480",BX10027945,113.913245,22.51248
荔林(地铁站),"113.913128,22.511903",BV11291533,113.913128,22.511903
荔林地铁站E口,"113.911812,22.512002",BX10027943,113.911812,22.512002
荔林地铁站A口,"113.912360,22.511546",BX10027944,113.91236,22.511546
荔林地铁站C口,"113.913993,22.512203",BX10027942,113.913993,22.512203
荔林地铁站B1口,"113.913705,22.511627",BX10027941,113.913705,22.511627
荔林地铁站B2口,"113.914455,22.511708",BX10027940,113.914455,22.511708
怡海(地铁站),"113.903758,22.514933",BV11291531,113.903758,22.514933
南油西地铁站A口,"113.917733,22.509584",BX10027932,113.917733,22.509584
怡海地铁站C口,"113.903397,22.515525",BX10028398,113.903397,22.515525
南油西(地铁站),"113.918402,22.509074",BV11291529,113.918402,22.509074
南油西地铁站D口,"113.918839,22.509832",BX10027930,113.918839,22.509832
怡海地铁站A口,"113.902289,22.515409",BX10028143,113.902289,22.515409
南油西地铁站C口,"113.919095,22.508585",BX10027931,113.919095,22.508585
南油西地铁站出入口,"113.919137,22.508860",BX09904161,113.919137,22.50886
南光地铁站B2口,"113.923523,22.517338",BX09901087,113.923523,22.517338
南光(地铁站),"113.924207,22.516592",BV10996658,113.924207,22.516592
南光地铁站B1口,"113.923738,22.517189",BX09916467,113.923738,22.517189
梦海地铁站C口,"113.899714,22.518241",BX10028399,113.899714,22.518241
南光地铁站C口,"113.925019,22.515840",BX09901085,113.925019,22.51584
梦海(地铁站),"113.898806,22.518925",BV11291532,113.898806,22.518925
南光地铁站A口,"113.925468,22.515841",BX09901086,113.925468,22.515841
梦海地铁站D口,"113.899072,22.519532",BX10027939,113.899072,22.519532
南山地铁站A口,"113.922227,22.524020",BX09906859,113.922227,22.52402
南油(地铁站),"113.925797,22.510346",BV10724148,113.925797,22.510346
南油地铁站F1口,"113.925106,22.508961",BX10027936,113.925106,22.508961
南山地铁站B1出口,"113.923066,22.523321",BX09906853,113.923066,22.523321
南山地铁站H口,"113.922193,22.524571",BX09906852,113.922193,22.524571
南油地铁站E口,"113.925894,22.511192",BX10027933,113.925894,22.511192
南油地铁站D口,"113.926076,22.511710",BX10028397,113.926076,22.51171
南山地铁站C口,"113.923578,22.523161",BX09906861,113.923578,22.523161
南山(地铁站),"113.923483,22.524037",BV10244676,113.923483,22.524037
南山地铁站B2口,"113.923109,22.523502",BX09906858,113.923109,22.523502
南油地铁站A口,"113.925916,22.509270",BX09901457,113.925916,22.50927
南油地铁站F2口,"113.925739,22.508669",BX10027934,113.925739,22.508669
南山地铁站D口,"113.924497,22.523481",BX09906855,113.924497,22.523481
南山地铁站G口,"113.923422,22.524776",BX09906857,113.923422,22.524776
南山地铁站E1口,"113.924646,22.523959",BX09906854,113.924646,22.523959
南山地铁站F口,"113.923953,22.524670",BX09906860,113.923953,22.52467
南山地铁站E2口,"113.924393,22.524049",BX09906856,113.924393,22.524049
月亮湾公园(地铁站),"113.898984,22.504644",BV09115353,113.898984,22.504644
四海地铁站E口,"113.921844,22.501315",BX09901078,113.921844,22.501315
中山公园西(地铁站),"113.914745,22.545025",BV09203794,113.914745,22.545025
大新地铁站A口,"113.915353,22.532749",BX10018556,113.915353,22.532749
大新地铁站B口,"113.914987,22.532694",BX10018557,113.914987,22.532694
大新(地铁站),"113.915072,22.532232",BV10249973,113.915072,22.532232
南头古城地铁站C口,"113.922848,22.540464",BX09906464,113.922848,22.540464
大新地铁站C1口,"113.914451,22.531986",BX10018558,113.914451,22.531986
大新地铁站D口,"113.915773,22.532025",BX10018555,113.915773,22.532025
大新地铁站C2口,"113.914974,22.531737",BX10018559,113.914974,22.531737
中山公园地铁站D口,"113.923088,22.545833",BX09901070,113.923088,22.545833
中山公园(地铁站),"113.923225,22.547021",BV10996672,113.923225,22.547021
南头古城地铁站D口,"113.923771,22.538870",BX09906465,113.923771,22.53887
南头古城(地铁站),"113.924170,22.537490",BV10996671,113.92417,22.53749
中山公园地铁站C口,"113.923007,22.547603",BX09901069,113.923007,22.547603
鲤鱼门地铁站A口,"113.903862,22.532365",BX10018503,113.903862,22.532365
中山公园地铁站B口,"113.923512,22.547070",BX09901068,113.923512,22.54707
南头古城地铁站A口,"113.924320,22.538899",BX09906461,113.92432,22.538899
中山公园地铁站A口,"113.924042,22.546055",BX09901317,113.924042,22.546055
鲤鱼门地铁站D口,"113.904466,22.531735",BX10018504,113.904466,22.531735
南头古城地铁站E1口,"113.923687,22.537138",BX09906463,113.923687,22.537138
鲤鱼门(地铁站),"113.903079,22.532005",BV10249972,113.903079,22.532005
南头古城地铁站E2口,"113.924034,22.536811",BX09912133,113.924034,22.536811
前海湾地铁站B1口,"113.898565,22.537333",BX09906803,113.898565,22.537333
南头古城地铁站E3口,"113.924007,22.535826",BX09906460,113.924007,22.535826
南头古城地铁站E4口,"113.923875,22.535515",BX09912132,113.923875,22.535515
前海湾(地铁站),"113.897933,22.537335",BV10249931,113.897933,22.537335
前海湾地铁站B2口,"113.898282,22.537997",BX09906807,113.898282,22.537997
鲤鱼门地铁站B口,"113.902485,22.532220",BX10018506,113.902485,22.53222
前海湾地铁站A口,"113.898326,22.536173",BX09906805,113.898326,22.536173
鲤鱼门地铁站C口,"113.902441,22.531753",BX10018505,113.902441,22.531753
前海湾地铁站E口,"113.897723,22.538413",BX09906806,113.897723,22.538413
前海湾地铁站C口,"113.897693,22.537707",BX09906804,113.897693,22.537707
前海湾地铁站D口,"113.897762,22.536201",BX09906802,113.897762,22.536201
前海湾地铁站F口,"113.897725,22.536419",BX09906801,113.897725,22.536419
桃园地铁站B口,"113.924085,22.532565",BX10018536,113.924085,22.532565
桃园地铁站C口,"113.924142,22.532123",BX10018538,113.924142,22.532123
桃园(地铁站),"113.924781,22.531506",BV10249851,113.924781,22.531506
桂湾(地铁站),"113.897939,22.532173",BV10868016,113.897939,22.532173
桃园地铁站A口,"113.925567,22.532563",BX10018537,113.925567,22.532563
桂湾地铁站B口,"113.898279,22.532705",BX10027828,113.898279,22.532705
桃园地铁站D口,"113.925035,22.531842",BX10018535,113.925035,22.531842
桂湾地铁站C口,"113.897644,22.533352",BX10027826,113.897644,22.533352
桂湾地铁站D口,"113.897549,22.532825",BX10027321,113.897549,22.532825
桃园地铁站出入口,"113.925999,22.532690",BX09901244,113.925999,22.53269
桂湾地铁站A1口,"113.898128,22.531647",BX10027827,113.898128,22.531647
桃园地铁站F口,"113.924531,22.530705",BX09916463,113.924531,22.530705
桂湾地铁站出入口,"113.898208,22.531244",BX09911806,113.898208,22.531244
桃园地铁站E口,"113.925029,22.530891",BX09916464,113.925029,22.530891
桂湾地铁站A2口,"113.897993,22.530902",BX09911807,113.897993,22.530902
洪浪北地铁站A口,"113.910170,22.573954",BX10018594,113.91017,22.573954
洪浪北(地铁站),"113.910585,22.574543",BV10249945,113.910585,22.574543
洪浪北地铁站D口,"113.909933,22.574215",BX10018592,113.909933,22.574215
洪浪北地铁站出入口,"113.910444,22.573939",BX09916040,113.910444,22.573939
洪浪北地铁站B口,"113.911434,22.575030",BX10018595,113.911434,22.57503
洪浪北地铁站出入口,"113.909902,22.574462",BX09904166,113.909902,22.574462
洪浪北地铁站C口,"113.910455,22.575113",BX10018593,113.910455,22.575113
新安公园地铁站B口,"113.910561,22.562986",BX09901063,113.910561,22.562986
灵芝地铁站C1口,"113.904988,22.569919",BX10018629,113.904988,22.569919
新安公园(地铁站),"113.910883,22.562303",BV10996670,113.910883,22.562303
新安公园地铁站C1口,"113.910178,22.562635",BX09901066,113.910178,22.562635
灵芝地铁站B口,"113.904641,22.569194",BX10018627,113.904641,22.569194
灵芝地铁站A2口,"113.904601,22.568180",BX09901161,113.904601,22.56818
灵芝(地铁站),"113.904158,22.568964",BV10249853,113.904158,22.568964
灵芝地铁站出入口,"113.904756,22.569907",BX09916037,113.904756,22.569907
新安公园地铁站C2口,"113.910523,22.562296",BX09901064,113.910523,22.562296
新安公园地铁站A口,"113.911667,22.561865",BX09901062,113.911667,22.561865
灵芝地铁站A1口,"113.903752,22.568409",BX10018628,113.903752,22.568409
灵芝地铁站C2口,"113.903713,22.569684",BX09901463,113.903713,22.569684
灵芝地铁站F口,"113.903412,22.568583",BX09901158,113.903412,22.568583
新安公园地铁站D口,"113.911128,22.561226",BX09901065,113.911128,22.561226
灵芝地铁站出入口,"113.903439,22.568851",BX09916396,113.903439,22.568851
灵芝地铁站D口,"113.902863,22.570564",BX09901464,113.902863,22.570564
灵芝地铁站E口,"113.902454,22.570269",BX09901162,113.902454,22.570269
灵芝地铁站出入口,"113.902447,22.570086",BX09916036,113.902447,22.570086
同乐关(地铁站),"113.925026,22.570790",BV09115351,113.925026,22.57079
新安老城(地铁站),"113.903238,22.558789",BV09203793,113.903238,22.558789
同乐南地铁站B口,"113.918446,22.556990",BX09901082,113.918446,22.55699
同乐南(地铁站),"113.918712,22.556232",BV10996652,113.918712,22.556232
兴东地铁站D口,"113.918453,22.581609",BX10018625,113.918453,22.581609
同乐南地铁站C口,"113.917044,22.556084",BX09901081,113.917044,22.556084
兴东(地铁站),"113.919013,22.581822",BV10249944,113.919013,22.581822
兴东地铁站A口,"113.919241,22.581358",BX10018626,113.919241,22.581358
同乐南地铁站A口,"113.919884,22.556932",BX09901478,113.919884,22.556932
同乐南地铁站D口,"113.918622,22.555930",BX09901083,113.918622,22.55593
宝安公园(地铁站),"113.903681,22.581591",BV09115352,113.903681,22.581591
兴东地铁站B口,"113.919662,22.582131",BX10018624,113.919662,22.582131
上川地铁站J口,"113.897341,22.575398",BX09901205,113.897341,22.575398
兴东地铁站出入口,"113.919649,22.581914",BX09916038,113.919649,22.581914
兴东地铁站C口,"113.919448,22.582504",BX10018623,113.919448,22.582504
将围(地铁站),"113.905922,22.756723",BV09268869,113.905922,22.756723
月亮路(地铁站),"113.910938,22.746354",BV11496166,113.910938,22.746354
新庄(地铁站),"113.902316,22.767043",BV09268870,113.902316,22.767043
红花山地铁站B2口,"113.907924,22.778184",BX10029431,113.907924,22.778184
红花山地铁站A2口,"113.908177,22.778057",BX10029550,113.908177,22.778057
红花山(地铁站),"113.907292,22.777684",BV10527872,113.907292,22.777684
红花山地铁站A1口,"113.908172,22.777806",BX10029436,113.908172,22.777806
红花山地铁站B1口,"113.907540,22.777864",BX10029432,113.90754,22.777864
红花山地铁站E1口,"113.908409,22.777270",BX10029435,113.908409,22.77727
红花山地铁站C口,"113.906223,22.778081",BX10029434,113.906223,22.778081
红花山地铁站E2口,"113.907945,22.777007",BX10029433,113.907945,22.777007
红花山地铁站D口,"113.907150,22.777457",BX10029430,113.90715,22.777457
楼村地铁站B口,"113.922634,22.776121",BX10029429,113.922634,22.776121
楼村(地铁站),"113.923407,22.775910",BV10527868,113.923407,22.77591
楼村地铁站C口,"113.922723,22.775601",BX10029427,113.922723,22.775601
楼村地铁站A口,"113.923947,22.776303",BX10029426,113.923947,22.776303
楼村地铁站D口,"113.924028,22.775788",BX10029428,113.924028,22.775788
登良(地铁站),"113.937602,22.509146",BV10249989,113.937602,22.509146
东滨路(地铁站),"113.932085,22.504899",BV09115356,113.932085,22.504899
登良地铁站E口,"113.937302,22.508444",BX09906617,113.937302,22.508444
登良地铁站D口,"113.937141,22.509842",BX09906615,113.937141,22.509842
登良地铁站A口,"113.937940,22.508374",BX09906618,113.93794,22.508374
登良地铁站B口,"113.937969,22.509239",BX09906616,113.937969,22.509239
登良地铁站C口,"113.938219,22.509738",BX09906614,113.938219,22.509738
南油地铁站B口,"113.926957,22.510120",BX09901456,113.926957,22.51012
南油地铁站C2口,"113.926663,22.511638",BX09901247,113.926663,22.511638
南油地铁站C1口,"113.926546,22.511323",BX09901248,113.926546,22.511323
南油地铁站C3口,"113.926648,22.511486",BX10028395,113.926648,22.511486
深圳湾口岸地铁站C口,"113.948688,22.503266",BX09913894,113.948688,22.503266
深圳湾口岸地铁站B口,"113.950305,22.503424",BX09913773,113.950305,22.503424
人才公园地铁站A口,"113.944126,22.511034",BX09913827,113.944126,22.511034
深圳湾口岸(地铁站),"113.950580,22.502944",BV10996639,113.95058,22.502944
人才公园(地铁站),"113.943126,22.512078",BV10996631,113.943126,22.512078
深圳湾口岸地铁站A口,"113.951703,22.502762",BX09913772,113.951703,22.502762
人才公园地铁站B1口,"113.943637,22.512481",BX09913825,113.943637,22.512481
人才公园地铁站D口,"113.942424,22.511393",BX09913828,113.942424,22.511393
人才公园地铁站B2口,"113.943422,22.512717",BX09913826,113.943422,22.512717
人才公园地铁站C口,"113.942237,22.512478",BX09913824,113.942237,22.512478
深大南地铁站A口,"113.936538,22.525190",BX10027938,113.936538,22.52519
深大南(地铁站),"113.935675,22.526016",BV11291530,113.935675,22.526016
南山书城地铁站B口,"113.929021,22.519368",BX10027951,113.929021,22.519368
南山书城地铁站C口,"113.928611,22.520308",BX10027949,113.928611,22.520308
南山书城(地铁站),"113.928340,22.518589",BV11291534,113.92834,22.518589
南山书城地铁站A口,"113.928540,22.518626",BX10027952,113.92854,22.518626
深大南地铁站B口,"113.936328,22.526494",BX10027937,113.936328,22.526494
南山书城地铁站D口,"113.928161,22.518916",BX10027953,113.928161,22.518916
南山书城地铁站H口,"113.928307,22.517742",BX10028400,113.928307,22.517742
南山书城地铁站E口,"113.927956,22.518265",BX10027950,113.927956,22.518265
名海(地铁站),"113.932484,22.514884",BV09115349,113.932484,22.514884
后海地铁站D1口,"113.939990,22.517619",BX09906561,113.93999,22.517619
后海地铁站D2口,"113.940187,22.518113",BX09906571,113.940187,22.518113
后海地铁站E2口,"113.939497,22.516865",BX09906559,113.939497,22.516865
后海地铁站E口,"113.939615,22.516668",BX09906562,113.939615,22.516668
南山书城地铁站G口,"113.927894,22.516582",BX10028403,113.927894,22.516582
后海地铁站A1口,"113.940466,22.516941",BX09906572,113.940466,22.516941
后海地铁站A3口,"113.940371,22.516801",BX09906568,113.940371,22.516801
后海地铁站A2口,"113.940437,22.516862",BX09906566,113.940437,22.516862
南山书城地铁站F1口,"113.927315,22.516537",BX10028401,113.927315,22.516537
南山书城地铁站F2口,"113.927161,22.516157",BX10028402,113.927161,22.516157
科苑地铁站E1口,"113.946034,22.524933",BX09913905,113.946034,22.524933
科苑地铁站F口,"113.945517,22.525212",BX09913906,113.945517,22.525212
后海地铁站M口,"113.943818,22.518496",BX09913830,113.943818,22.518496
后海(地铁站),"113.943503,22.518172",BV10249990,113.943503,22.518172
科苑地铁站E2口,"113.946016,22.525902",BX09913907,113.946016,22.525902
后海地铁站H口,"113.943143,22.518584",BX09906569,113.943143,22.518584
科苑(地铁站),"113.946195,22.527019",BV10249991,113.946195,22.527019
科苑地铁站B口,"113.947109,22.526875",BX09906573,113.947109,22.526875
后海地铁站出入口,"113.943969,22.517895",BX09906564,113.943969,22.517895
科苑地铁站C口,"113.947267,22.527251",BX09906574,113.947267,22.527251
科苑地铁站A口,"113.945515,22.526495",BX09906575,113.945515,22.526495
后海地铁站L口,"113.943595,22.517225",BX09913832,113.943595,22.517225
后海地铁站出入口,"113.942912,22.518669",BX09906570,113.942912,22.518669
后海地铁站G口,"113.943072,22.517892",BX09906563,113.943072,22.517892
后海地铁站N口,"113.943019,22.517757",BX09913831,113.943019,22.517757
后海地铁站F口,"113.942035,22.518363",BX09906567,113.942035,22.518363
后海地铁站出入口,"113.942951,22.517652",BX09916188,113.942951,22.517652
科苑地铁站出入口,"113.946909,22.527693",BX09913896,113.946909,22.527693
科苑地铁站D口,"113.945471,22.527671",BX09906576,113.945471,22.527671
后海地铁站J口,"113.941436,22.519109",BX09906565,113.941436,22.519109
后海地铁站出入口,"113.941848,22.518866",BX09906560,113.941848,22.518866
后海地铁站K1口,"113.943349,22.515872",BX09913829,113.943349,22.515872
后海地铁站K2口,"113.943134,22.515721",BX09916187,113.943134,22.515721
深大北(地铁站),"113.935662,22.539632",BV09115350,113.935662,22.539632
高新南(地铁站),"113.950000,22.532797",BV11291528,113.95,22.532797
高新南地铁站M2口,"113.948437,22.533005",BX09914608,113.948437,22.533005
高新南地铁站K口,"113.949801,22.533348",BX09916207,113.949801,22.533348
深大地铁站H2口,"113.946150,22.536075",BX09914089,113.94615,22.536075
深大地铁站H1口,"113.945906,22.535680",BX09914091,113.945906,22.53568
高新南地铁站M1口,"113.947743,22.533006",BX09916208,113.947743,22.533006
高新南地铁站L口,"113.949158,22.532918",BX10027926,113.949158,22.532918
高新南地铁站N口,"113.947549,22.532907",BX09914609,113.947549,22.532907
高新南地铁站Y2口,"113.947428,22.532905",BX09914615,113.947428,22.532905
高新南地铁站Y1口,"113.947242,22.532906",BX09914611,113.947242,22.532906
粤海门地铁站C口,"113.946426,22.532846",BX10027917,113.946426,22.532846
高新南地铁站出入口,"113.950268,22.533081",BX10027921,113.950268,22.533081
高新南地铁站F口,"113.949061,22.532515",BX09914617,113.949061,22.532515
高新南地铁站G1口,"113.949326,22.532513",BX10027925,113.949326,22.532513
高新南地铁站D口,"113.951000,22.533094",BX10027922,113.951,22.533094
高新南地铁站E口,"113.947712,22.532159",BX09916209,113.947712,22.532159
高新南地铁站A口,"113.950725,22.532669",BX10027927,113.950725,22.532669
深大地铁站J口,"113.945949,22.537524",BX09914086,113.945949,22.537524
高新南地铁站G2口,"113.949838,22.532079",BX09914612,113.949838,22.532079
深大地铁站G2口,"113.944851,22.536178",BX09914092,113.944851,22.536178
粤海门(地铁站),"113.945645,22.531821",BV10724144,113.945645,22.531821
粤海门地铁站D1口,"113.945117,22.533055",BX10027918,113.945117,22.533055
粤海门地铁站D2口,"113.944987,22.533021",BX10028394,113.944987,22.533021
粤海门地铁站F2口,"113.945986,22.532158",BX09914083,113.945986,22.532158
深大地铁站F口,"113.945107,22.537261",BX09914087,113.945107,22.537261
粤海门地铁站F1口,"113.945983,22.531884",BX09914085,113.945983,22.531884
粤海门地铁站A口,"113.944846,22.532592",BX10027919,113.944846,22.532592
深大地铁站E口,"113.945305,22.538018",BX09914088,113.945305,22.538018
深大地铁站K口,"113.946180,22.538653",BX09914090,113.94618,22.538653
高新南地铁站A口,"113.951618,22.532278",BX09914610,113.951618,22.532278
高新南地铁站C口,"113.952529,22.532940",BX10027923,113.952529,22.53294
粤海门地铁站E口,"113.945992,22.531035",BX09914084,113.945992,22.531035
高新南地铁站B1口,"113.952398,22.532422",BX10027920,113.952398,22.532422
深大(地铁站),"113.944173,22.538667",BV10249974,113.944173,22.538667
深大地铁站C口,"113.943616,22.537653",BX10018495,113.943616,22.537653
深大地铁站D口,"113.944593,22.538563",BX10032298,113.944593,22.538563
高新南地铁站B2出口,"113.952647,22.532425",BX10029544,113.952647,22.532425
粤海门地铁站G口,"113.945370,22.531030",BX09914082,113.94537,22.53103
深大地铁站L口,"113.944903,22.538663",BX09914460,113.944903,22.538663
深大地铁站A2口,"113.943967,22.539476",BX10018496,113.943967,22.539476
深大地铁站A1口,"113.943972,22.539264",BX10018497,113.943972,22.539264
深大地铁站A4口,"113.944720,22.540300",BX10018493,113.94472,22.5403
深大地铁站A3口,"113.943977,22.540300",BX10018494,113.943977,22.5403
高新园地铁站C口,"113.953035,22.539836",BX10018561,113.953035,22.539836
高新园(地铁站),"113.953842,22.540236",BV10249975,113.953842,22.540236
高新园地铁站B口,"113.952848,22.540732",BX10018563,113.952848,22.540732
高新园地铁站D口,"113.954713,22.539873",BX10018560,113.954713,22.539873
高新园地铁站A口,"113.954595,22.540697",BX10018562,113.954595,22.540697
玉泉路(地铁站),"113.936050,22.546248",BV09115357,113.93605,22.546248
高新中地铁站B口,"113.945600,22.548479",BX09914081,113.9456,22.548479
高新中(地铁站),"113.945319,22.547012",BV10996630,113.945319,22.547012
高新中地铁站C口,"113.944966,22.547839",BX09914078,113.944966,22.547839
高新中地铁站A口,"113.945756,22.545778",BX09914079,113.945756,22.545778
高新中地铁站D口,"113.945090,22.545904",BX09914080,113.94509,22.545904
西丽西(地铁站),"113.939500,22.565536",BV09300812,113.9395,22.565536
打石一路(地铁站),"113.938976,22.572347",BV09115358,113.938976,22.572347
西丽高铁站(地铁站),"113.943532,22.565158",BV10996635,113.943532,22.565158
石鼓(地铁站),"113.944108,22.575174",BV10996634,113.944108,22.575174
西丽南(地铁站),"113.950162,22.572865",BV09298375,113.950162,22.572865
西丽东(地铁站),"113.951874,22.565483",BV09300813,113.951874,22.565483
留仙洞地铁站A口,"113.943089,22.580055",BX10018587,113.943089,22.580055
留仙洞(地铁站),"113.943543,22.580534",BV10243933,113.943543,22.580534
留仙洞地铁站C口,"113.942921,22.580714",BX10018588,113.942921,22.580714
留仙洞地铁站D口,"113.944469,22.580097",BX09912112,113.944469,22.580097
留仙洞地铁站B口,"113.944465,22.580768",BX10018586,113.944465,22.580768
朗山路(地铁站),"113.939151,22.556803",BV09115363,113.939151,22.556803
高新北(地铁站),"113.945561,22.556935",BV10996633,113.945561,22.556935
茶光(地铁站),"113.954311,22.574138",BV10602479,113.954311,22.574138
茶光地铁站B口,"113.954118,22.573274",BX09906409,113.954118,22.573274
茶光地铁站A口,"113.954051,22.575139",BX09906407,113.954051,22.575139
茶光地铁站C口,"113.954623,22.573300",BX09906408,113.954623,22.5733
茶光地铁站D口,"113.954495,22.575556",BX09906406,113.954495,22.575556
西丽地铁站A口,"113.953125,22.580371",BX10018621,113.953125,22.580371
西丽地铁站F口,"113.952933,22.581008",BX10018622,113.952933,22.581008
西丽地铁站B口,"113.953999,22.580174",BX10021754,113.953999,22.580174
西丽(地铁站),"113.954396,22.580677",BV10249901,113.954396,22.580677
西丽地铁站C口,"113.954611,22.579997",BX10021755,113.954611,22.579997
松坪村(地铁站),"113.951912,22.555899",BV09298379,113.951912,22.555899
西丽地铁站E口,"113.954217,22.581684",BX10021905,113.954217,22.581684
西丽地铁站D口,"113.954723,22.581573",BX10021756,113.954723,22.581573
百旺港大(地铁站),"113.938895,22.623547",BV10996637,113.938895,22.623547
应人石(地铁站),"113.926474,22.644857",BV10996638,113.926474,22.644857
沙蚝(地铁站),"113.801591,22.739607",BV09340714,113.801591,22.739607
蚝乡(地铁站),"113.790149,22.740545",BV11552467,113.790149,22.740545
沙蚝地铁站A口,"113.801362,22.739215",BX09914070,113.801362,22.739215
蚝乡地铁站B口,"113.790844,22.740292",BX09914058,113.790844,22.740292
蚝乡地铁站A口,"113.789871,22.739986",BX09914057,113.789871,22.739986
沙蚝地铁站B口,"113.801763,22.739217",BX09914072,113.801763,22.739217
蚝乡地铁站C口,"113.790954,22.740744",BX09914056,113.790954,22.740744
沙蚝地铁站D口,"113.801416,22.740090",BX09914069,113.801416,22.74009
蚝乡地铁站D口,"113.789436,22.740779",BX09914055,113.789436,22.740779
沙蚝地铁站C口,"113.801835,22.740063",BX09914071,113.801835,22.740063
海上田园东(地铁站),"113.781235,22.731193",BV10996659,113.781235,22.731193
海上田园东地铁站A口,"113.781440,22.731247",BX09901354,113.78144,22.731247
海上田园东地铁站D口,"113.781434,22.729652",BX09901353,113.781434,22.729652
海上田园东地铁站C口,"113.781079,22.731121",BX09901356,113.781079,22.731121
海上田园东地铁站B口,"113.780683,22.732738",BX09901355,113.780683,22.732738
沙井古墟(地铁站),"113.808554,22.744104",BV09340713,113.808554,22.744104
沙井古墟地铁站D口,"113.808255,22.743732",BX09914062,113.808255,22.743732
沙井古墟地铁站C口,"113.808190,22.744442",BX09914064,113.80819,22.744442
石岩(地铁站),"113.938119,22.680007",BV10996636,113.938119,22.680007
官田地铁站C口,"113.949044,22.683058",BX10029382,113.949044,22.683058
官田(地铁站),"113.949663,22.683253",BV10527867,113.949663,22.683253
官田地铁站B口,"113.949701,22.683442",BX10029383,113.949701,22.683442
官田地铁站D口,"113.950426,22.682995",BX10029384,113.950426,22.682995
上屋地铁站D口,"113.939038,22.688582",BX10029379,113.939038,22.688582
上屋(地铁站),"113.938536,22.689097",BV10527880,113.938536,22.689097
罗租(地铁站),"113.933249,22.667687",BV10996632,113.933249,22.667687
上屋地铁站C1口,"113.937714,22.689285",BX10029377,113.937714,22.689285
上屋地铁站C2口,"113.938209,22.689034",BX10029556,113.938209,22.689034
上屋地铁站B口,"113.937823,22.689671",BX10029378,113.937823,22.689671
红坳公园(地铁站),"113.946383,22.723585",BV09340727,113.946383,22.723585
德雅路(地铁站),"113.947463,22.738791",BV09267647,113.947463,22.738791
长圳地铁站B2口,"113.931646,22.726998",BX09912657,113.931646,22.726998
长圳(地铁站),"113.930926,22.726332",BV10527877,113.930926,22.726332
长圳地铁站B1口,"113.931119,22.727030",BX10029375,113.931119,22.72703
长圳地铁站出入口,"113.931602,22.726167",BX09916194,113.931602,22.726167
长圳地铁站A口,"113.931345,22.725533",BX10029373,113.931345,22.725533
长圳地铁站C口,"113.930520,22.726935",BX10029374,113.93052,22.726935
长圳地铁站D口,"113.930737,22.725455",BX10029376,113.930737,22.725455
光明城站(地铁站),"113.953569,22.733024",BV11496173,113.953569,22.733024
光明城站地铁站C口,"113.953347,22.733894",BX09916172,113.953347,22.733894
光明城站地铁站A口,"113.953829,22.732173",BX09916174,113.953829,22.732173
光明城站地铁站B口,"113.953886,22.733325",BX09916173,113.953886,22.733325
光明大街地铁站A口,"113.942393,22.760994",BX10029417,113.942393,22.760994
光明大街地铁站D口,"113.941952,22.761257",BX10029414,113.941952,22.761257
光明大街(地铁站),"113.942714,22.761965",BV10895876,113.942714,22.761965
光明大街地铁站B口,"113.943654,22.762753",BX10029415,113.943654,22.762753
光明大街地铁站C口,"113.943107,22.763071",BX10029416,113.943107,22.763071
碧眼(地铁站),"113.951071,22.757988",BV09270692,113.951071,22.757988
碧眼地铁站D口,"113.950633,22.757376",BX09916168,113.950633,22.757376
碧眼地铁站C口,"113.950761,22.759076",BX09916169,113.950761,22.759076
碧眼地铁站B口,"113.951448,22.758713",BX09916170,113.951448,22.758713
碧眼地铁站A口,"113.951292,22.756804",BX09916171,113.951292,22.756804
虹桥公园(地铁站),"113.950166,22.749968",BV11601406,113.950166,22.749968
虹桥公园地铁站C口,"113.949885,22.750633",BX09916178,113.949885,22.750633
虹桥公园地铁站B口,"113.950655,22.750554",BX09916175,113.950655,22.750554
凤凰城地铁站C口,"113.933157,22.748452",BX10029454,113.933157,22.748452
虹桥公园地铁站D口,"113.949661,22.749294",BX09916177,113.949661,22.749294
凤凰城地铁站B口,"113.933595,22.747981",BX10029453,113.933595,22.747981
光明地铁站D口,"113.944891,22.770928",BX10029447,113.944891,22.770928
虹桥公园地铁站A口,"113.950352,22.749172",BX09916176,113.950352,22.749172
凤凰城(地铁站),"113.932831,22.747433",BV10527878,113.932831,22.747433
光明地铁站A口,"113.945504,22.770943",BX09901505,113.945504,22.770943
光明(地铁站),"113.945241,22.771707",BV10527871,113.945241,22.771707
凤凰城地铁站出入口,"113.932730,22.747981",BX09901472,113.93273,22.747981
凤凰城地铁站A口,"113.932769,22.746720",BX10029452,113.932769,22.74672
光明地铁站出入口,"113.944809,22.771427",BX09916193,113.944809,22.771427
凤凰城地铁站出入口,"113.932341,22.747396",BX09901471,113.932341,22.747396
凤凰城地铁站D口,"113.932162,22.746977",BX10029455,113.932162,22.746977
凤凰城地铁站出入口,"113.933127,22.746868",BX09901470,113.933127,22.746868
光明地铁站出入口,"113.944809,22.772062",BX09916192,113.944809,22.772062
圳美(地铁站),"113.949275,22.787814",BV11029716,113.949275,22.787814
圳美地铁站C口,"113.948913,22.788910",BX09901113,113.948913,22.78891
圳美地铁站D口,"113.949168,22.787395",BX09901111,113.949168,22.787395
圳美地铁站A1口,"113.949957,22.786718",BX09901112,113.949957,22.786718
圳美地铁站B2口,"113.949572,22.788877",BX09901114,113.949572,22.788877
圳美地铁站B1口,"113.949609,22.788617",BX09901110,113.949609,22.788617
科学公园地铁站A口,"113.934697,22.777787",BX10029404,113.934697,22.777787
科学公园(地铁站),"113.934115,22.777469",BV10527873,113.934115,22.777469
科学公园地铁站D口,"113.934708,22.777273",BX10029402,113.934708,22.777273
科学公园地铁站B口,"113.933316,22.777744",BX10029403,113.933316,22.777744
科学公园地铁站C口,"113.933318,22.777228",BX10029405,113.933318,22.777228
光明地铁站C口,"113.944851,22.772711",BX10029446,113.944851,22.772711
光明地铁站B口,"113.945419,22.772586",BX09901157,113.945419,22.772586
中大地铁站F口,"113.951594,22.795751",BX09900951,113.951594,22.795751
中大(地铁站),"113.953344,22.796433",BV11029714,113.953344,22.796433
中大地铁站G口,"113.953127,22.796080",BX09901116,113.953127,22.79608
中大地铁站E口,"113.952584,22.796791",BX09901117,113.952584,22.796791
中大地铁站A口,"113.954052,22.796272",BX09901119,113.954052,22.796272
中大地铁站D口,"113.953364,22.797020",BX09901115,113.953364,22.79702
中大地铁站B口,"113.955297,22.796285",BX09901118,113.955297,22.796285
中大地铁站C口,"113.954687,22.797381",BX09900952,113.954687,22.797381
白石洲地铁站A口,"113.967899,22.539824",BX10018541,113.967899,22.539824
白石洲(地铁站),"113.967048,22.539604",BV10244044,113.967048,22.539604
白石洲地铁站D口,"113.967687,22.538931",BX10018539,113.967687,22.538931
白石洲地铁站B口,"113.966540,22.540245",BX10018540,113.96654,22.540245
白石洲地铁站C口,"113.966366,22.539368",BX10018542,113.966366,22.539368
世界之窗地铁站C1口,"113.973196,22.537734",BX09906633,113.973196,22.537734
白石洲北(地铁站),"113.968403,22.546713",BV09300810,113.968403,22.546713
世界之窗地铁站B口,"113.973994,22.537438",BX09906636,113.973994,22.537438
世界之窗地铁站H1口,"113.973087,22.536958",BX09906639,113.973087,22.536958
世界之窗地铁站C3口,"113.973574,22.537467",BX09906638,113.973574,22.537467
世界之窗(地铁站),"113.974216,22.536900",BV10242356,113.974216,22.5369
世界之窗地铁站B2口,"113.974040,22.537454",BX09906642,113.97404,22.537454
世界之窗地铁站C2口,"113.974111,22.537445",BX09906644,113.974111,22.537445
世界之窗地铁站H口,"113.973360,22.536733",BX09906637,113.97336,22.536733
世界之窗地铁站I口,"113.973702,22.536715",BX09906635,113.973702,22.536715
世界之窗地铁站B3口,"113.974199,22.537224",BX09906645,113.974199,22.537224
世界之窗地铁站L口,"113.974500,22.537187",BX09906634,113.9745,22.537187
世界之窗地铁站H2口,"113.973864,22.536533",BX09906641,113.973864,22.536533
世界之窗地铁站A口,"113.975617,22.536847",BX09906646,113.975617,22.536847
世界之窗地铁站A3口,"113.975270,22.537115",BX09916131,113.97527,22.537115
世界之窗地铁站A2口,"113.975474,22.537071",BX09916130,113.975474,22.537071
世界之窗地铁站K口,"113.974600,22.536287",BX09906643,113.9746,22.536287
世界之窗地铁站J口,"113.975266,22.536089",BX09906640,113.975266,22.536089
华侨城地铁站B口,"113.984483,22.533867",BX10018490,113.984483,22.533867
华侨城地铁站C口,"113.984769,22.533163",BX10018492,113.984769,22.533163
龙井地铁站D口,"113.974097,22.564676",BX10021788,113.974097,22.564676
龙井(地铁站),"113.974687,22.564010",BV10249903,113.974687,22.56401
龙井地铁站C口,"113.975392,22.563938",BX10021790,113.975392,22.563938
龙井地铁站B口,"113.975349,22.563276",BX10021789,113.975349,22.563276
珠光地铁站C口,"113.961193,22.568456",BX10021757,113.961193,22.568456
珠光地铁站B口,"113.961362,22.567915",BX10021759,113.961362,22.567915
珠光(地铁站),"113.960559,22.568270",BV10249902,113.960559,22.56827
珠光地铁站D口,"113.959749,22.568549",BX10021758,113.959749,22.568549
大沙河公园东(地铁站),"113.967329,22.556938",BV09300811,113.967329,22.556938
大学城(地铁站),"113.965307,22.581946",BV10249943,113.965307,22.581946
桃源村地铁站D口,"113.981543,22.560422",BX09906833,113.981543,22.560422
大学城地铁站B口,"113.966296,22.582000",BX10018632,113.966296,22.582
桃源村(地铁站),"113.981962,22.559900",BV10243793,113.981962,22.5599
桃源村地铁站A口,"113.981275,22.560013",BX09906834,113.981275,22.560013
桃源村地铁站B口,"113.982413,22.559349",BX09906832,113.982413,22.559349
